gaze_away_count,gaze_away_total_sec,head_turn_count,head_turn_max_angle,phone_detected_count,multiple_faces_count,audio_anomaly_count,whisper_detected_count,tab_switch_count,fullscreen_exit_count,identity_mismatch_flag,typing_pause_count,answer_change_count,session_duration_sec,audio_duration_ms,audio_rms_energy,audio_zero_crossing_rate,audio_spectral_centroid_hz,audio_spectral_rolloff_hz,audio_spectral_flatness,audio_tempo_bpm,audio_speech_rate_syl_per_sec,audio_mfcc_1,audio_mfcc_2,audio_mfcc_3,audio_mfcc_4,audio_mfcc_5,audio_mfcc_6,audio_mfcc_7,audio_mfcc_8,audio_mfcc_9,audio_mfcc_10,audio_mfcc_11,audio_mfcc_12,audio_mfcc_13,audio_delta_mfcc_1,audio_delta_mfcc_2,audio_delta_mfcc_3,audio_delta_mfcc_4,audio_delta_mfcc_5,audio_delta_mfcc_6,audio_delta_mfcc_7,audio_delta_mfcc_8,audio_delta_mfcc_9,audio_delta_mfcc_10,audio_delta_mfcc_11,audio_delta_mfcc_12,audio_delta_mfcc_13,audio_is_suspicious,eye_left_pupil_x,eye_left_pupil_y,eye_right_pupil_x,eye_right_pupil_y,eye_iris_left_offset_x,eye_iris_left_offset_y,eye_iris_right_offset_x,eye_iris_right_offset_y,eye_head_yaw_deg,eye_head_pitch_deg,eye_blink_rate_per_min,eye_fixation_duration_ms,eye_saccade_velocity,eye_looking_away,face_recog_cosine_similarity,face_recog_euclidean_distance,face_recog_is_match,expression_face_width,expression_face_height,expression_mouth_open_ratio,expression_eye_openness_left,expression_eye_openness_right,expression_eyebrow_raise_left,expression_eyebrow_raise_right,expression_AU1,expression_AU2,expression_AU3,expression_AU4,expression_AU5,expression_AU6,expression_AU7,expression_AU8,expression_AU9,expression_AU10,expression_AU11,expression_AU12,expression_AU13,expression_AU14,expression_AU15,expression_AU16,expression_AU17,expression_confidence,object_total_objects_detected,object_suspicious_object_count,object_avg_detection_confidence,object_phone_detected_flag,pose_shoulder_width_px,pose_head_tilt_angle,pose_torso_lean_angle,pose_hand_near_face,pose_movement_velocity,pose_nose_x,pose_nose_y,pose_nose_conf,pose_left_eye_x,pose_left_eye_y,pose_left_eye_conf,pose_right_eye_x,pose_right_eye_y,pose_right_eye_conf,pose_left_ear_x,pose_left_ear_y,pose_left_ear_conf,pose_right_ear_x,pose_right_ear_y,pose_right_ear_conf,pose_left_shoulder_x,pose_left_shoulder_y,pose_left_shoulder_conf,pose_right_shoulder_x,pose_right_shoulder_y,pose_right_shoulder_conf,pose_left_elbow_x,pose_left_elbow_y,pose_left_elbow_conf,pose_right_elbow_x,pose_right_elbow_y,pose_right_elbow_conf,pose_left_wrist_x,pose_left_wrist_y,pose_left_wrist_conf,pose_right_wrist_x,pose_right_wrist_y,pose_right_wrist_conf,pose_label_id,pose_is_suspicious,gaze_away_ratio,obj_suspicion_ratio,label_id,cheating_score
0.3005375978725432,0.4819918833632134,-0.017017930055942886,-0.27057911543836577,1.3468153987396572,-0.606998118537838,1.1562808259515116,1.2022504106431249,0.4550618917947631,0.726911000489515,2.303542121669649,-0.2839077363591632,0.8296920674145194,1.3236118939785688,0.7418248822986773,-0.867588655559549,-1.3142223676325597,-1.4903536738149514,-1.1811028114362263,-0.9392888669000728,0.5410351190254947,-1.0465405897068507,-0.47911814058676283,-0.23439230913487244,0.9595701145740522,-0.32263201903080135,-0.32255999822572057,-0.31009892094403707,-1.1943644467715615,0.4595451441218192,-0.22088034729010353,1.8914607019789453,0.705293690171132,-1.0131248972655356,0.9450013332233365,-0.3256954045726608,-0.028891298097449336,0.24501276081357767,0.13172115697820122,-0.5902936568363136,0.3704958303231568,-1.5301034743453226,0.4950072841592079,0.8768511529756023,1.2657138878793477,0.3439999773320805,-1.3215894268761206,0.3848549345608604,-0.9801960588196069,0.599219984974274,1.5603984182968509,0.6684309526273893,1.6464907963941446,0.44974211384097146,1.4379745394603505,0.6387520169353709,1.5110177548323778,0.592789040082909,1.5038426882730702,0.6380237060006995,-0.09567991220009772,-0.12235945463309404,1.0680228381802601,0.707235350247737,-0.2934567645659564,0.6950185950444974,0.27739129621375486,0.7748040112855862,-0.5155487023567368,0.40045222116294765,0.12056461613238416,-0.4474439138041233,0.18843481945105184,-0.7744336738839228,-1.0902965241728857,-0.564823196487991,1.7920511211095422,-1.3162426559429266,-1.3288699722399988,-0.778738694065137,-0.6001859825765556,-1.176293103852476,0.07878758338710677,-1.0382743242784438,-0.5198527424580696,-1.0726031945325578,-0.38080793880030017,-1.1206994779429111,-1.1813935806666804,-0.6343163350770638,-0.20990191169463063,1.3351690046711173,2.320851134819436,0.393519055469588,1.9649710204252662,-2.69891089502748,1.6043849447422776,1.3465542216995225,-0.4034732923929645,-1.081667936065381,-1.2795270156898193,0.7861930079612888,-0.25288172062090836,-2.252669514691081,-0.44770529309707296,-0.07773863491256798,-2.223255179296678,1.249437146175259,-0.9786752325978341,-2.1716635730914793,0.8520193355694838,0.30557904808944675,-1.6809671334345682,0.5489179541709012,-0.05132678506937899,-1.8046038120587398,0.6716606633659774,0.22717973816045017,-2.100267353890782,0.5665032764631964,0.6168022854491099,-2.2268894484925577,0.9037388537232307,1.0598603859423434,-2.5291471942111197,1.3899928581595384,-0.41612588730120076,-1.5782715123197713,1.3202483585583642,-0.011907595427905177,-2.5461735346194367,0.11293321386024756,0.6462061535819862,-1.0234933063924312,-0.8710878083461199,0.27793227781696866,1.0525437081818574,2,45
-0.7814860829323517,-0.7588622871364196,-0.9333680099913344,-0.8197848208702844,-0.6050909762453532,-0.606998118537838,-0.47556711389941214,-0.5931102025839415,-0.5073046467440108,-0.6595677470381701,-0.4341140500939406,0.8920414674953595,0.435137415790767,-0.41916128114414397,0.27796824857921554,1.6621116369484472,-0.3923848610239764,0.009147152005899687,0.49363191734911904,-0.663754655149674,-0.053630734081445926,1.731852617787096,1.4410303904047557,-0.5708162875392301,1.28065159706727,0.2171367147439651,-0.9645129357959878,0.7880836772168348,1.6931204174409193,2.591392951384838,-0.7038684752449887,-0.720638300602942,-0.9398061588139017,-0.11157722021810142,-0.3739793421799457,1.5435093443944916,0.27271369170485166,0.19464318596381164,0.8863903803202045,-0.8157300536915535,0.8706158999690823,2.29762686301499,2.51136998074568,-0.6520345146502526,-0.7411280454977219,-1.7767305464868328,0.19608185145803986,-0.23501839161503835,1.0202040612204073,-0.2694172908141861,0.2268042494200342,-0.31815562710230577,0.38795803961514713,-0.20640474555578014,0.7737653213835012,-0.30455607472859786,1.0062241262715508,-0.2134025022705435,0.8224417624135858,2.377465182204593,-1.0012099344444514,1.02073385242642,1.0680228381802601,0.7232089762014333,-0.5535210182436527,0.6950185950444974,0.6783749872248704,1.3351825717101953,-0.3912707370204108,0.7426958613076364,-2.5432733873664928,-0.1613230934156205,-0.8998004775385229,-1.3419690599451308,-0.9613162650306732,0.28522581947598463,-0.7488338281529922,-1.3276333425609668,-0.1946888226572691,-0.11835784024530326,-1.3562854194285272,-1.176293103852476,-0.4840535690876392,-0.3677217869426756,0.4637256107432769,0.32655742621220507,-1.0280263779918828,-1.1206994779429111,-0.21445938557626607,-1.3791772590296834,-0.9072031776632401,1.3351690046711173,1.1537564549533401,-0.18082197044737058,1.9649710204252662,-0.8235243377952308,-1.1630556966710313,1.4272374960144811,-0.4034732923929645,-0.842656167255916,0.42053407497450745,2.2057264091948974,-1.8806836995770164,0.3131207380080374,1.9984623456153043,0.3094794232382642,0.5392706091018348,2.746683229147498,0.23509591073921043,-0.3658401067895298,3.335490319108779,0.46137317311684173,0.3754748938067424,2.710602724855973,0.617291096276835,-0.09855368525391126,2.277240278760003,-0.7486661155192882,0.35916289048962835,3.5658440208838162,0.9682936680393565,0.1503485249310106,2.7452319133185488,0.7888264869355176,-0.4113819339943818,3.1645286406933697,0.5555496022597189,-0.07632119129009148,2.0169878709261404,-0.9673888575163799,0.10183876554421602,2.218731265027617,1.0659057053299767,-0.021471887546694286,-0.8710878083461199,-0.7390754730809904,0.25516211107438946,0,11
-0.31776164830168246,-0.22610424654146855,-0.24610545003979076,-0.45479544923527887,0.37086221124715196,0.44473129477029716,-0.47556711389941214,-0.14427004927717496,0.1342730456151718,-0.1974081645289418,-0.4341140500939406,-0.8718823382864246,-0.7485265390804904,-0.024198521909534833,-1.819470443021829,-0.8243311266178939,-0.7317115505731483,-1.2641708090231352,-1.5448137820991028,-0.7377654628366744,-0.22815223444978616,-0.95916973412528,-0.26383727326847867,0.8458912742144498,0.8586550759289581,0.3547680221314325,0.7388266397564167,0.4512856592015096,0.3560985089790971,0.11815672694500563,-0.7992334472712072,0.7006803928788131,1.1127462697583268,-0.36559720964259695,1.646958117251546,0.021847918571552938,0.5183289636104031,1.6797503349553344,0.46062177371829816,0.27387919777543906,0.46318824113711365,0.3448263284390482,-1.3820132748582803,-0.04070541485582029,1.6558865036572608,1.541287572390114,0.048507185719469555,0.8589073654297551,-0.9801960588196069,-0.12907442618251322,0.0821551464466231,-0.15390114819994016,0.09617530550157966,-0.07485054849851064,-0.06151827091021451,-0.15139704435515944,0.1521573708887905,-0.11181367584190764,-0.03355997650202374,0.24814889236879195,0.49308675625535664,-0.6749704854292757,-0.9363095659113807,0.46373495461212183,-0.4522328352323394,0.6950185950444974,0.44365282663299843,0.7162569975098819,-0.37215105004559146,-0.09389970349049169,-1.1709932037458595,-0.733564734192626,-2.312797093524986,-0.8886328674206293,-0.8393079117880397,0.060345127422022964,0.242731030095802,-0.6403952499391986,-1.3288699722399988,0.2341762997637809,-0.9483180973860965,-0.9593060342671752,-0.4270569966851333,0.4704688847270346,0.7344352492390603,-1.0726031945325578,-1.0280263779918828,-0.5420909140518418,-1.1813935806666804,-0.4797225584076521,-0.050518765187521,-0.8743305302456252,-0.013338224912755277,-1.4479737058450164,1.9649710204252662,-0.153743424497999,-0.8630429254721494,-0.23573443569938957,-0.4034732923929645,0.292391063843579,2.6611329207615637,-0.09085204181496899,0.8615365572798114,1.3332797917291181,0.12215610653592242,2.181033370967284,1.5419490608091997,0.3755797668940634,-0.13156412214385552,2.211176204533135,0.8520193355694838,-0.7460312958454695,2.1470008733065415,-0.34937297666827527,0.12528925905980962,1.3048808663593152,-0.7459885135849811,1.0177384044326419,2.3010945815283654,0.022405182237233253,0.05701971317575195,2.062053042090308,0.14650189690273915,-0.18925236600215692,2.0636750112282476,0.6277116203063833,-0.18898096766358316,1.0450492839397763,0.6046780485590268,-3.40638050021591,2.2534165043182033,-0.5889994698622082,0.4232407667158655,-0.5224825969695627,-0.8710878083461199,-0.23055207048970783,1.0525437081818574,1,18
-0.6269112713887953,-0.5970117431582067,-0.9333680099913344,-0.8197848208702844,-0.6050909762453532,-0.606998118537838,-0.47556711389941214,-0.5931102025839415,-0.8280934929236021,-0.6595677470381701,-0.4341140500939406,-0.2839077363591632,1.224246719038272,1.3927303768446253,0.701489522844811,-0.2723650573223735,0.6948744067398278,1.2869908753364925,1.5839326974696928,0.4116312975072225,0.5604263968441981,0.7183506930408764,-2.079775490641586,-0.21380648560601298,-1.0128897419329879,-1.3535060629230893,0.8460261663097703,-1.1239533545186027,-0.5252537518520461,0.8157026620417337,0.21028331358729538,0.19523194856023984,-0.8319076728764764,-1.0320384848959014,0.11293046022194217,-0.8783820393373207,-0.0970297283680217,-1.0030922833585194,-1.0582908347543754,0.4850834988696157,-0.4988228247681903,-0.40865525945967224,0.29610321327642314,0.23005821037541543,-0.267546936533426,0.180604095362677,-1.1069353676200182,0.3170562895103715,1.0202040612204073,0.36956802466790056,1.272864225800924,0.3886684853356176,1.3300998798854577,0.24943325412414136,1.0381529906277494,0.122990335147785,1.071672337420002,0.20001512827593718,1.133715122019262,0.9679177790738517,-1.0138345608635742,2.231840824814695,1.0680228381802601,-1.2045349559666052,1.52950240309937,-1.4388104248289593,-0.19205302496999072,0.20606159175016503,-1.2516566508872828,-0.683319305961899,-0.6866590212915177,-0.4016645825419628,0.49040587044815886,1.4680232173823138,0.028694372709553193,-0.3219520490697122,-0.6248882208718929,0.8973474434962496,-1.3288699722399988,-0.49571832814235106,0.971848098360277,-1.176293103852476,-0.3201884234304347,-0.3677217869426756,-1.2236978025471064,0.7136585312849228,1.2312081737203497,1.3151711428824546,0.12799647518492235,1.5370235281433084,1.1946620668992805,0.23041923721274607,1.1537564549533401,0.054695760477322185,-0.5089133578079826,-0.49533169027958684,0.5330794979809156,-0.03738805300844952,-0.4034732923929645,0.4682871707596358,-0.4251979593825245,-0.9545681394669667,1.4500495804408664,-0.360969791766038,-2.996365989297399,-0.5294930360885388,0.94990165432977,-1.2802964772852716,-1.5602739054468353,-0.5804144245501144,-2.116962724378371,0.8378756419330449,-1.1311107018153426,-0.5601682411136645,-0.3036354195396484,0.09551499883635575,-1.3438251981973455,0.7583363420620786,-0.12579518586707197,-1.1106790989883337,0.6949114815802762,0.44346218257888487,-0.7300166336469966,1.5194396059973947,-0.42870516720678853,-1.650891215006021,0.3284046826221014,-0.3186058255175774,-1.0026650349921178,-0.9171003700380391,-0.15938553422632862,-1.8547110884233775,0.00354121496787358,0.47953882187617414,1.1479898931183963,-0.6303051086263185,1.0525437081818574,0,10
-0.6269112713887953,-0.6779370151473131,-0.47519297002363864,-0.292960539170701,-0.6050909762453532,-0.606998118537838,-0.8019367018695969,-0.5931102025839415,-0.5073046467440108,-0.6595677470381701,-0.4341140500939406,-1.459856940213686,-0.7485265390804904,1.718574653213178,-1.6984643646602302,1.627505613795123,-0.8844085608702756,0.3301605245582684,0.5371108074550529,-1.253166027211207,-0.3703549384536197,1.443528794367913,-0.01712997281511267,-0.5309037122569766,-0.6293215634746054,0.13860133595224636,-1.3016970300068729,1.6131181279869298,-1.9565682241333198,-0.7697537677298346,0.331825605940377,0.11439129003024119,-0.669758176918307,0.3878597031462442,1.1378132196649708,-0.579942168442682,0.22623166175283327,-0.907124988118439,-0.20731680753813156,-0.9751295262154605,2.1677859654276768,-1.220265703484495,-1.0557887410203064,0.7963538589879376,-0.13151832012878778,-0.43825069105105696,0.2139696897293817,0.25033381342893796,1.0202040612204073,0.4493082886631688,1.163495391845418,0.4077431990146023,1.1789353308868622,0.7453330257474289,1.225427589675759,0.618727691409515,1.439737524868718,0.6014811321837549,1.329895810846369,0.5480525951625668,-1.0643330665400654,1.2750122148487193,1.0680228381802601,-1.4753073959134093,0.786722394349739,-1.4388104248289593,-0.15293266487134605,-0.8059653606584541,-0.936181815802763,-2.3945375066853414,0.6856211623291162,-0.44172149739635325,-1.053634786537049,-1.2381516112753979,-1.4319199132522598,-0.05209521860495804,0.46406247166919345,-0.613816981163771,-1.028140121971851,0.17459306483266804,-0.9863950474433901,-0.42985758447904077,0.5988813065599734,0.05447795878725244,-0.8988462363521662,-1.0726031945325578,0.013151111142402246,-0.8028219335830027,-0.5418068995391667,-1.3159343503921967,1.1448548336158095,-0.8743305302456252,-0.013338224912755277,-2.556849944001522,1.9649710204252662,-0.6225900638060613,-0.048047602136603855,-0.6906984547531844,-0.4034732923929645,-1.252390628072142,-0.13397384081739624,-1.4264130446657437,-1.6803388406285722,-0.7441929118423231,-0.9041410424434047,-1.536259987280701,-0.42755910056182056,-1.8688978649221277,0.412104202475863,-1.18377191211453,-1.6028119496423396,-0.6162028583226403,-0.6580028734622806,-0.84949507466616,-0.19009653402802718,-0.742159999157789,-1.1722365370101977,0.3877619672469894,-1.2710100371769435,-1.7867209810640925,-1.0625454313709626,-0.559805520620273,-0.8037299657268675,1.2955420372526267,-1.0794091147478209,-1.3871831111000648,-0.6180324825346386,-0.00878166935942095,-1.333549050518127,-0.3262106421675355,-0.7447013926333578,-2.0863628289759175,-0.6128925016619896,-1.5245040158152996,-0.8710878083461199,-0.703681852059316,1.0525437081818574,0,18
-0.7814860829323517,-0.7521185144706608,-0.7042804900074865,-0.43930061742058524,-0.6050909762453532,-0.606998118537838,-0.8019367018695969,-0.5931102025839415,-0.5073046467440108,-0.6595677470381701,-0.4341140500939406,-0.8718823382864246,-1.1430811907042429,-1.0165424544864903,0.7216572025717441,-0.5665162541256288,0.25092198791299497,-0.24176953001536147,-0.14274092874682393,0.6345554170463799,-0.2087609566310818,-0.39999625840322783,-0.6610125061752615,-0.1572112092988428,-0.20004251377427654,-0.31563381696025217,-0.7751947737521602,-1.1583827256548356,0.21082798662828112,-0.9109751248353273,-1.4002514676365823,1.9535810477564042,-1.1827621653715725,-0.46069052522860254,-1.4455945836535815,-0.7763559774409817,-0.4662449435550767,0.20365668883166452,-0.004006666025845609,-0.6506377428632213,-0.7302920088346815,-0.17284952234435214,-1.4645256778893259,-0.7359093174765606,1.576396530285003,-0.9147745698259376,-1.1650708420018794,-1.1788185774766065,-0.9801960588196069,-0.5352181707984154,-0.7557512427286263,-0.5703657301911006,-0.8002656246063643,-0.5160714151720689,-1.7748540490518625,-0.5112937058333804,-1.6324403865650194,-0.6615885012204076,-1.5572299930592204,-0.20170666182187028,0.8672347755857229,0.035308587719942226,-0.9363095659113807,0.6877553185968878,-0.6080432609006434,0.6950185950444974,0.12090985581917206,-0.2706783775662936,1.9508909173949631,1.4842237482877942,0.20128697987477445,-1.225692545260851,0.10866888145181593,1.3399816973563097,1.3254688700312587,0.45613514543699574,-1.1029641346704184,1.2846307885096218,0.7676466982008044,1.967055382343645,1.167672412940644,1.4535901795213717,1.4467053210472491,2.7242704685500327,1.8262974578387203,2.579206025611273,2.119626031244199,0.2401021445416407,-0.2094232699768368,1.4526996499599933,-0.32943927157496367,1.3351690046711173,-0.013338224912755277,-0.515854235565596,1.9649710204252662,0.2883119782781737,-0.9882451055787693,-0.13039793867708246,2.4784787961282104,0.56140863912696,-0.9743327364555155,-0.6186785459356341,0.13528644359170236,0.6995285377525466,-0.563864091583415,0.21912854300307003,-0.5915942535496993,-0.9087679418265467,1.2845022117493634,0.22795713889446434,-0.18446498485328627,1.5649148920608882,0.3901938040221706,-0.503680621229606,-0.12701937541045982,0.2884872496831738,-1.1341057234130538,1.2524355084821992,0.12928016598288028,-0.5352953643443782,1.4760034428919369,-0.19772394352584055,-0.19928064267192733,-0.44850218244346857,-0.3442544052963054,-0.5081560980802101,-0.05017018344059462,0.43933769837106174,0.2495830075067234,-0.07476820477583124,0.2189019372256222,-0.9504320048206902,0.6330905425898615,0.9805495312990425,1.1479898931183963,-0.7204364651072775,-0.5422194860330782,0,11
-0.7814860829323517,-0.7824654914665757,-0.9333680099913344,-0.8197848208702844,-0.6050909762453532,-0.606998118537838,-0.8019367018695969,-0.5931102025839415,-0.5073046467440108,-0.6595677470381701,-0.4341140500939406,-0.2839077363591632,-0.7485265390804904,0.29670871996858506,0.519980405302413,-0.6386121356950542,1.1204466298827476,-0.1977749104327746,-0.4003550862325412,0.5855121107477651,-0.7323254577361052,0.4999235540869497,0.7307015316841531,0.7014757415685672,-0.7092993325039003,-0.11385232392608378,0.22633824952639406,-0.9627324247330697,-1.0553578827239458,-0.7415879163126816,-1.6375041430041026,0.7872213542538757,-0.10257023778919341,-0.7017730953364939,1.0714311186339422,1.5080457399920206,-0.04420923978618266,-0.47606746861465177,-0.421327482814222,-0.04719688259414499,-0.6218890199166641,-1.1177176271110882,-0.9852980126030557,-1.2667411232833283,-0.3022538263156794,-0.2668842782538776,-0.05546587423270497,1.3044413186186823,-0.9801960588196069,1.4508460044437448,-0.6269782608132718,1.4759271650377312,-0.6209774385847755,1.477813801955189,-0.48596416148615235,1.70166486376729,-0.5392608597587095,1.6668056702936742,-0.4958924665045722,1.2378311115882485,-0.13814456470078337,0.2864954199000248,1.0680228381802601,-0.9801249913488222,1.159709284492751,-1.4388104248289593,0.893536967767421,1.29336327615612,-1.2038574334502343,1.0469124303251376,1.2708582994614446,-0.5676146583672945,-0.0052824585470922026,-1.0512802036698778,-1.2715660775619415,-0.5873112656933871,-1.2623227726032604,-0.6745673097933197,-0.8219253675022636,0.7207727183678688,-0.5566694682253632,-0.2996653427278601,0.6060058781102867,-0.8892626493149397,0.27422886379622863,0.20529683908099242,-1.0280263779918828,-0.3420780771512253,-1.005129534686657,-0.32512878173824056,0.26824752782670047,-0.8743305302456252,-1.1804329047788507,-1.6541109552459061,-0.5089133578079826,-0.56230978160931,0.3606312121736842,1.9886586131227353,-0.4034732923929645,0.05441397801597297,0.3796982207107634,1.859173653964157,-1.3422568911530726,0.3619524929208056,1.4108354826843983,1.832537118631536,0.5533928408160227,1.4358971602257047,0.42474765188562386,0.8228166336762835,1.482092698773852,-0.16180332699273822,0.0032967355023336632,2.06306171642896,1.323755272793588,-0.5448020153371795,1.9313393268430545,0.8942136128276118,-0.054416075061324114,1.8029661955916965,0.8250934751322184,0.43807406387212183,2.3498604048901495,-1.6740467692569407,-0.15369883995982997,1.1441399904555483,0.4419771424409102,0.2817454805328293,1.16422174961114,-1.621139194734811,0.14953116882182538,1.0395401760704088,-0.5604300576934905,-0.021471887546694286,-0.8710878083461199,-0.7727277404833017,-1.339601083140546,0,2
-0.9360608944759081,-0.9072252857831149,-0.9333680099913344,-0.8197848208702844,-0.6050909762453532,-0.606998118537838,-0.8019367018695969,-0.5931102025839415,-0.8280934929236021,-0.6595677470381701,-0.4341140500939406,1.480016069422621,-0.35397188745673797,-1.2387090065559578,1.0443400782026742,-0.571130390546072,0.5266249231716968,-0.07568457857679174,0.21895905656825068,1.4798836783388656,0.1855283590159104,0.910566575320332,-1.0802058429625485,0.3020981743909389,0.3361986741806784,-2.121817932835143,1.0244082740259193,-1.4852076601491486,0.21196083015120035,1.0940936760488595,-1.703179394760866,-1.0681624456457646,1.1493606720714618,0.10520664355911157,1.2442055646475154,-0.29950689670622077,0.3693751858096171,0.32083222611375184,-0.5863409771718391,1.074292263377629,-1.2749253831087783,0.5186645113822028,-0.1612668618029473,-1.091673581813652,-0.33080304210430717,1.326083240040168,-0.058819843908581575,1.9840420225771545,-0.9801960588196069,-0.21838352185721438,2.1125346284270674,-0.23549853449337288,2.247633537760649,-0.1869152348806291,1.4852791959672869,-0.3186272223954155,1.5453618656330503,-0.19819134109406328,1.5698901868448627,0.9079370385150969,1.3194259400524855,-0.33258351110380946,-0.9363095659113807,0.8767116256101252,-0.4522328352323394,0.6950185950444974,-2.3241126503461706,-0.906331669988236,-1.3090157118117411,0.7617093968712302,-0.7068396122271152,-0.8880699772024178,-0.5636440245417432,1.350363442223283,0.20996392609860873,-0.7942015023830321,-1.2003499689627106,0.4645013520107161,0.18337156053697398,-0.7837039636427297,0.6563533693141306,0.412052245511927,-0.3985587104838803,0.9237127294076927,-0.555947360924174,0.28458260758986215,0.604089686056456,1.1865914620177724,-0.274892772769417,-0.5851274061367964,1.1946620668992805,0.23041923721274607,-1.1804329047788507,0.027684672624793343,-0.5089133578079826,-0.033182860104496496,-0.3173504046300885,-1.2857376028260046,-0.4034732923929645,0.9835592957254958,0.504355038989563,0.155733572483827,1.5752651172836425,0.7812686492369625,0.2109834230254781,-0.8263602140041769,-0.1592366979922442,-0.4760137301124514,-1.0545359290563994,0.7527081932198544,0.5601671716609673,0.6950643606579342,-0.15545722467836112,-1.2380196797223677,0.3019053031889982,-0.946096582439086,0.9726217278291494,1.067148321074654,0.24264698902730417,1.3554455130908423,0.3824746970556112,0.7462744538989315,-0.5571253638596637,-0.5074225952710394,-0.3745700634180171,-0.017823842380072303,0.7574561974931555,0.05661374076392753,0.2657236911909195,2.163069488010334,-0.199490509709773,0.5832141570301638,-0.33746467082736986,1.481560240721911,1.1479898931183963,-0.889181051190932,-1.339601083140546,0,14
-0.6269112713887953,-0.63747437915276,-0.24610545003979076,-0.24475439574720972,0.37086221124715196,0.44473129477029716,-0.14919752592922736,-0.14427004927717496,-0.5073046467440108,-0.1974081645289418,-0.4341140500939406,1.480016069422621,-1.5376358423279954,0.020234788504358694,0.1972975296714831,-0.33753973426113393,0.18447051120961538,1.4629693536668404,1.2319409172819407,0.5168514819297046,-1.5015128112113851,-0.9853809907997514,-1.6883497922792676,1.161288753968535,-1.150997694305526,-1.1096057611309857,1.0867503322292136,-1.6139049035476867,-2.0174752229537996,1.4145700921734945,-0.0783961986755312,1.5962757012408013,1.7581924643808993,-0.4252932206009389,1.3239675049321202,-1.132628803207342,0.8695852126796328,-1.0863346333733959,-0.35036604838057095,1.7870356190916699,-1.1817092863580196,-2.499100538258743,1.0895337377868723,-0.8788905249791258,0.638750717619287,1.0351588648263519,-0.526698613693367,1.1198783404256847,1.0202040612204073,0.6364321081720667,-2.318667160221826,0.6408785884244124,-2.4121015714867284,0.8557735862399515,-1.39188073404365,0.8097705808859239,-1.6207763489346023,0.7410978615535914,-1.5140702415172569,-0.11173555098373762,1.3779582989047816,0.04999335637047039,-0.9363095659113807,0.7380138002560789,-0.5204426701881563,0.6950185950444974,-1.1700620274361277,-0.7223267695503037,-1.490652738072525,0.9138176813799808,0.8672464807494944,0.23924605512828348,1.0487674364428097,-0.16191072673249712,-0.9020550648842514,-0.42989478125561387,-0.5806219325572145,1.0606139516881616,0.020118213248550853,-0.6794333025132822,0.2864629973289935,-0.2215499976771518,-1.1822615810183368,-0.2807983098806316,-0.6461839070894351,-0.7787794641761575,0.5397698411678514,-0.38850962857458277,0.7524748095141482,0.41973214221437916,-0.35932361154504694,0.23041923721274607,1.1537564549533401,-0.5480779894949314,-0.5089133578079826,-0.6359856820720051,-0.2890027412097217,0.6047163384147634,-0.4034732923929645,-0.6771068901584508,-0.8013176697064911,0.6822271813920663,-0.6160067774649636,-1.1327238313656487,0.4829316688935018,0.09005585695279264,-0.9631175801844973,1.0198408602176199,-0.9533883337783123,-0.9745088398430689,0.5901706651468893,-0.901825420872863,-1.1752674324616281,0.8754439520372886,-0.7956372567566738,-1.0974043700348874,1.3171608649747713,-0.48926405314872484,-1.3140474422215858,1.370408210682056,0.13512890930691818,-1.7150181713501305,0.9399253985624397,0.4235199274045798,-1.3858138021922675,0.5727724319926423,0.5050729534513595,-1.2287812877261417,0.10700696829632908,0.46583303561633294,-1.153338575261969,0.5999600659857696,0.8691715404481055,-1.0234933063924312,-0.8710878083461199,-0.6296299039712602,1.0525437081818574,1,25
-0.6269112713887953,-0.583524197826689,-0.47519297002363864,-0.10530090941496704,-0.6050909762453532,-0.606998118537838,-0.8019367018695969,-0.5931102025839415,-0.5073046467440108,-0.6595677470381701,-0.4341140500939406,-0.2839077363591632,0.435137415790767,-1.4608755586254256,-0.327062143228778,-0.8151028537770074,-1.309980784013195,-1.1908113596234626,-1.5645075696430986,-1.0079494957181334,0.6832378230293273,1.1115195431579445,0.302034530022465,-1.617734468838719,1.961763085345208,1.2390686115461067,-0.7538465479388472,0.6949592158040722,-0.09717217589716454,-0.775831318035624,-1.9717123111265622,0.3104039764980103,0.5758691545221382,0.3822118957288433,1.5881385340594953,1.233066407394401,-1.0879420941633222,1.7348917642645518,1.0992746836211578,-0.8681041660922658,0.36944845844955276,0.01634345278305585,0.4321667123143721,-1.7818112211764277,0.24074106221312336,1.0573624864180131,1.020040401831724,1.2393330959908317,-0.9801960588196069,0.820366317121153,1.2358199433321235,0.8210286620592656,1.0681985101088223,1.1935917712759028,1.566928329116246,0.8828323091559388,1.5557298990823099,0.9605731870999489,1.5509260535915759,0.7879755573975868,1.6706200931662647,-0.2823461446677927,-0.9363095659113807,-1.1402508515188028,0.10097402017855003,-1.4388104248289593,0.27739129621375486,1.0926306574965585,1.5684971778985757,-0.8924681971614311,0.42327348016634775,1.2463913428958133,-0.22748757154496366,-1.3523508048121042,1.3324407759308377,1.6345099717997555,-0.15566556473630283,-0.38600324880296394,-0.03143547536884599,-0.7489470765995805,-1.3562854194285272,2.113230871060687,0.34952130229900996,-0.3863482463131136,-0.49278177860849115,-0.8207542827985005,-0.07930866588496677,1.736626763494468,2.0064675937720295,0.9467563808601006,1.6030813798237518,1.3351690046711173,1.1537564549533401,0.3712467549596062,-0.5089133578079826,0.8911148002456823,-0.573660528055905,0.8097863272986167,-0.4034732923929645,-0.24460940374132326,0.6494297844002365,0.4862915851654558,1.137010738333922,1.9150146111246988,0.0346953641462059,1.0193791965147885,1.0715701121750838,0.8278148755985041,-0.5108676044366823,0.952411023610894,0.269678802910901,1.7466747045928477,1.5130363833134381,-0.41550482433741665,1.4120632948581824,1.4748280190937288,0.6907260701645496,-0.8104285113218019,0.92809639132368,-0.14218449126612046,-0.7501086468462991,1.2893968195405807,1.1248788499628426,0.06999745043915476,2.1481257731387315,0.6469403362161927,-0.26469594087612236,1.0772109610496194,0.1836752157962579,-1.7468604134306631,1.4036245913717011,0.926505290620073,1.7348018659283388,-0.5224825969695627,-0.8710878083461199,-0.5161254668812598,0.25516211107438946,0,3
1.0734116555903253,1.2069474449322923,1.3575071898471445,0.10474014407310217,3.2987217737246675,0.44473129477029716,1.8090200018918812,1.6510905639498914,1.4174284303335372,3.4998684955448853,2.303542121669649,-1.459856940213686,0.0405827641670145,-0.10812810824688927,-0.16572070541331307,1.904353799021716,-0.31038091104959326,-0.10494415810779448,0.5524359026917536,-0.8144513599581445,0.15967332192430486,0.29023350069118037,-0.3604033193675451,0.43770020460856357,0.2734518879097276,-0.09622722241507099,0.3000092741889005,1.6003500401670354,-0.6312745780264262,-0.4501269016479442,-0.8883026080795723,0.604487782368358,-1.077277815850398,0.805469091137549,0.46823952484469245,0.020756730743784608,-0.8423268222577707,1.0196438013978741,-0.33797595665406044,-0.4661897817998433,0.8381473718873574,-0.49694531451912927,-0.7273784481616425,-0.3919663340747207,1.0625106460897031,-0.6893224121259941,0.5538386168848769,-0.6186726290832812,1.0202040612204073,0.5970935779344004,0.12801949616989872,0.6260427000074238,0.11375257864095113,0.2288609928559264,-0.29544951747191456,0.6198100873838855,-0.3182921468713642,0.3776597605869742,-0.26374531805916246,-0.3216681429393803,-0.026818313550336995,-0.9021979582321812,-0.9363095659113807,0.5938615660397946,-0.787122593476952,0.6950185950444974,-2.187191390000911,-1.4834379486344729,-0.572907763281195,-1.1396441594881508,0.927788253556287,1.6126259929930973,1.4817825284386617,0.6167201382905017,-0.7521590880433014,-0.2409949999302859,-1.2623227726032604,1.2846307885096218,-0.5297877986703484,-0.907835703082548,1.1404745914711485,0.3339369004612186,0.7342481660159251,-0.6284922181288076,-0.7815387263373268,-0.6388634021016812,-1.0280263779918828,-1.05640963751057,0.38987448635524286,-0.8521530203839619,-0.20990191169463063,-0.8743305302456252,-0.013338224912755277,1.1962696312974164,1.9649710204252662,-2.14969054612375,0.7823027055516404,-0.5999297711488558,-0.4034732923929645,-1.0433846657365922,0.0970711240958975,-0.5773587943504306,0.1603295509602579,-0.17625837100904698,-0.8207800223532065,-1.0586910488946748,0.22966783690617007,-0.8308443538651664,-0.7005193455830958,0.6995957383286205,0.051471577558739504,-0.3954945145338307,-0.3604706169646877,-0.3218180401394662,-1.7922563629142367,-0.2575365055538472,-0.936642581570701,1.2894929459637083,-0.3252368190007802,-0.11770007702595181,-1.0234908333053794,-0.3281164162294905,-0.07463809933687268,-0.8845132373674914,0.4850953847476727,-0.15517181316442472,-1.3751822146600292,-0.3025249869626558,-0.5197895814399326,0.1641021107462878,-0.6428130765402821,-1.4821146141611592,1.9708828637865843,-1.5245040158152996,-0.8710878083461199,1.174582072973894,1.0525437081818574,3,90
-0.16318683675812604,-0.28342631420041897,-0.017017930055942886,-0.15178540485904798,0.37086221124715196,-0.606998118537838,-0.14919752592922736,-0.5931102025839415,0.1342730456151718,0.26475141798028656,-0.4341140500939406,-1.459856940213686,-0.7485265390804904,-0.16243548764164803,0.07629145130988436,-0.5492132425489668,0.8800902247854173,1.0939618506607407,1.0135756462395382,0.7148081000804767,-0.5707314759135673,-0.8106392796366099,2.6320334041665165,0.6356262877117262,0.13027217457435583,1.8967700098430913,0.3324245250404033,-2.7533773379420476,0.15758434105107838,-0.5442962563860354,1.87390172413223,2.172913154953981,-0.013783665147085764,0.4775679000319373,-1.5802978928538385,1.7568365647232003,0.4523033528831044,-0.057734894336068675,2.4092452907058584,0.2636320888274736,-2.3374841488800695,0.8921149927206516,-0.7044279784443981,1.2517546340650056,2.473737567719715,0.032010627787714206,0.027265377772251104,-1.4042759764937085,1.0202040612204073,-0.5830623291955767,0.6078311548134095,-0.5820224996615909,0.6234934996827243,-0.28436278825638434,0.74978898863341,-0.4198312459990656,0.8513516266232353,-0.381268530968129,0.8407519600374492,0.8479562979563422,-1.1515577581630956,0.4603939960246973,1.0680228381802601,0.6764569002393952,-0.8122165126914667,0.6950185950444974,0.48277318673164304,2.104657609905178,-1.1656180595005956,-0.1699538457448659,0.20128697987477445,-0.27577142157102175,-1.0080542505374857,-0.6221680825016475,-0.8323360058884607,-0.2319997722481274,1.1900296000299178,-0.9973034306377966,-1.2085780321327395,-0.907835703082548,-1.3562854194285272,0.3426163832446306,-0.7049152871473496,-0.1504130942875656,0.4186073376606463,-0.9560064761371608,-0.38884791941137575,-0.7528187243578486,-1.1813935806666804,-0.683505264017331,-1.0665863241703508,0.23041923721274607,1.1537564549533401,0.8735582132698191,1.9649710204252662,0.46245501573545544,-1.7985158183442538,-0.6133769835346823,-0.4034732923929645,1.0518483725282,0.48823562283282224,-1.2358090292888366,-1.1419120322046283,0.22607282707658216,-2.5057658874550848,0.6708829441790409,-0.5242420715281864,-0.8322358465073337,1.322432559978646,0.029316557601250525,-0.746348590135103,1.279292329510664,0.9032529601028253,-0.31492930600726393,0.11267382733629615,0.7149997813843814,-1.9866017702634862,-0.21750951161765847,-0.002981127568946603,-0.09865664372804295,-1.3749822158956273,0.20854020696404404,-1.098583294046351,-0.4131499347469261,0.03577402330087016,-0.7979603164351935,0.2148322228032926,-0.5651786833597092,-1.687299034596747,-1.1559706855601581,0.19939140861205432,-0.3768846230912076,-1.6621413810319678,0.47953882187617414,1.1479898931183963,-0.2764927058106186,1.0525437081818574,1,19
0.1459627863289868,0.07736552341768083,-0.017017930055942886,0.020379393081992325,-0.6050909762453532,0.44473129477029716,-0.14919752592922736,-0.14427004927717496,-0.5073046467440108,0.26475141798028656,-0.4341140500939406,-0.8718823382864246,-1.1430811907042429,-0.8585573507926466,-0.5892419796789086,-0.3294649955253583,0.8334328049724062,1.1150119078772893,1.3820713751437381,0.610479612136151,-0.07948577117305144,-0.33009957393797124,0.8613074357112395,-0.7666019486241015,0.5955737316260907,-0.25932420955925906,0.41428121910985494,0.7642626178513601,-0.5645700858827716,-1.0653318326017198,-0.4951126296003827,0.29569978620449294,0.9059352500995201,0.2746408660811381,-0.8417566208182655,0.729483224879316,-0.9020139743552488,1.3451903167426777,-0.7643077492435354,0.6638386216285685,0.8920870233779651,-0.2945910889480755,-1.2481355348410212,-0.4426289666543698,0.1937188244436188,1.7712943191345012,0.7472508681937607,-1.3278679796907766,1.0202040612204073,0.12928402916215795,0.2515004377325671,0.136458382246824,0.3000716739182897,0.23914712349003386,-0.36413847075595945,-0.07400573218766228,-0.24636391481712566,0.11200769575487295,-0.2964420995303469,-0.1717162915424929,0.5022683027419915,-0.21974265726291084,-0.9363095659113807,0.8104795179972377,-1.03578052023896,0.6950185950444974,2.1453884909240775,-0.7976015015476395,-0.05667621496107167,-0.22699445243564736,0.12056461613238416,-0.3673300840953424,-0.8656150755388503,-0.791736581995545,-1.4319199132522598,-0.6727659286738926,2.8721485559876934,-1.0732413414247322,0.34662490782539734,0.20438468229822446,-1.2039776191993532,-1.0113829309676474,0.09303672648773327,-0.8582185503642097,-1.2236978025471064,0.1166833331004907,-0.931546610658976,-0.9492599034566683,-0.7180709455191902,-1.3791772590296834,0.3877848877070335,0.23041923721274607,-0.013338224912755277,-0.5729566230433134,1.9649710204252662,-0.4216557898168917,-1.528031863208254,-0.8027585579684048,2.4784787961282104,0.22824071896831144,0.022921809774886837,-0.6639969831581157,2.3766445530774196,0.3693834121466607,0.2615466647195326,0.29657215463323644,-0.37758812680392384,0.8111169638924934,2.3339085127595176,0.0016980810578084437,0.6188103634743605,-1.382190639707331,-0.7704974015373419,-0.8618947961041236,0.04959666871872878,0.19967615696389937,0.47419752152362465,1.141263196037672,-0.25175832258309827,-0.34622127660085666,-0.04712588166580301,0.20746258322269168,1.1945714548383572,-0.8020246594088923,0.347592221124194,-0.4133859982390068,-0.3151725896844818,-0.04844773779489409,0.8198871643483008,-0.20048942347168336,-0.21249752878548514,-0.00568364124195614,0.7642466525111075,0.9805495312990425,1.1479898931183963,0.16106677426253063,-0.14352868747934433,1,38
-0.6269112713887953,-0.6813089014801926,-0.24610545003979076,-0.7560838456320994,0.37086221124715196,-0.606998118537838,-0.14919752592922736,-0.5931102025839415,0.1342730456151718,-0.1974081645289418,-0.4341140500939406,0.30406686556809814,-1.1430811907042429,0.2275902371025285,1.004004718748808,-0.8237543595653384,-1.7002064769947427,-1.4252037467297332,-1.4984224304549727,-0.571909917899541,0.3665136186571527,-0.7844280229621386,-0.10363433346136708,-0.0026601488604636697,-0.9374635532549537,0.5727490569955759,-1.0057687096069914,0.28117153391953276,-0.8957602217009163,0.3647876393541355,0.7399267162513242,2.9357820936621493,1.6535128269984747,-1.1703440944429506,0.48304137599961505,0.5505284211253095,-0.8264806756832189,0.14586422926719614,0.1362266448787505,-0.6364056471021582,0.09922651505971233,-1.5854904032956652,0.01905825740397294,0.8002942859663548,3.1438044559351552,1.8732032490039199,-1.3992897243672617,0.5807176869289394,-0.9801960588196069,0.5333013667381854,-1.486052811399264,0.5582214958154795,-1.496325640925475,0.27650201895074,-2.2070760475467486,0.11703715728874675,-2.0970578855099657,0.309752791049116,-2.191547553600199,-0.02176444014560549,0.5435852619318475,-0.8349571754639746,-0.9363095659113807,0.5693167261597246,-0.6584592258679864,0.6950185950444974,0.07200940569586521,-1.3579800619722473,1.8935318564705048,-1.8051179042139334,-0.7270202031627128,0.2335236387205134,-1.8285038985296256,1.509550196850207,0.4260930089855598,0.024364216693389045,1.2254426306816604,1.2504587286555011,1.1800762071399788,1.708861364308823,1.6354749422159645,1.1150903509683023,2.6008859121979944,1.4142094928292268,1.1946416346818922,1.8096676842016537,1.6332072042741275,-0.16349518706138905,-0.566987477536313,1.2067550052586564,2.081230819345083,1.3351690046711173,-0.013338224912755277,0.1347812665664053,1.9649710204252662,-0.4752382628806691,-0.20750320887616713,1.2748357556417813,-0.4034732923929645,-1.2627374578907336,-2.4820354609827286,0.2397059708666605,-0.5283559016750192,-2.525490406268935,0.4801985206938235,-1.1103201233147857,-1.908220779518633,0.2099921424761296,0.5006083483441892,-1.5640570891357641,1.0238575255343114,1.0456011419695714,-2.049991239549956,0.4772751191959978,-0.6190212126274852,-0.9241679175701294,0.8173748438979201,1.141263196037672,-1.8388938452050279,0.13802602726025043,0.8641480731978015,-2.5006058787960876,0.6799183726807133,1.5665759362594514,-1.6110158339535565,-0.14281049579383284,-1.2237522682349509,-1.8237723142582418,0.30607540040140774,-0.37649912964587634,-1.6714515017778209,0.1171196910991492,-1.2162106072997265,-1.0234933063924312,-0.8710878083461199,-0.6767180528626934,-0.5422194860330782,1,27
-0.31776164830168246,-0.07774124789477323,-0.7042804900074865,-0.6097437673822151,0.37086221124715196,0.44473129477029716,0.1771720620409574,-0.5931102025839415,0.1342730456151718,-0.1974081645289418,-0.4341140500939406,-1.459856940213686,0.8296920674145194,-1.3226385928933124,-0.22622374459411243,-0.5520970778117437,1.111963462644018,-0.2622933358014965,-0.05703134633703994,0.6853821163013081,0.5668901561170994,-1.3348644131260339,-2.2384103755729354,-1.135321118069147,-1.215305022411195,-0.6150661481455098,0.1987034296085472,0.6897503441561551,-0.43655876779290115,0.12266587717188161,-2.0464667853764404,-0.7446054830196883,1.4505241899987316,2.130405307952233,0.6224631792361573,-1.403243384493888,-1.8358802124821632,-0.8896281884337834,-1.0650490666051993,-0.3284230948327523,-0.5051070560098145,-0.21836551346196043,-0.9443150309651194,-2.3503585423480455,-0.6448444157792126,1.4262841990179207,1.988778643214081,0.7362241029574419,-0.9801960588196069,-1.404918650106813,-0.19126693844214346,-1.3556081099759596,-0.2729474304252206,-1.2474694407867648,0.1264043371310404,-1.4886972706900226,-0.3079241134221046,-1.642708397103383,-0.024404877690092076,2.0775614794108184,-1.3684717939098419,1.1451679446756304,1.0680228381802601,0.4465925267593742,-0.28524420918666055,0.6950185950444974,-1.2874231077320646,0.6075268290692855,0.9853467251665846,-0.9875358749794002,-2.3818286598817124,1.0518291850316313,0.42203506644881383,-1.2208487031637756,1.276665528734205,1.486088715044141,-0.30617094500620906,-0.8530214001426186,0.9309000454892278,-0.907835703082548,-0.5457903396375651,-0.21287051489373976,-0.7619118595498556,1.1410214220628025,0.021566534533497442,-0.5082750774988367,-0.5657274928550381,1.761628368107045,1.8805647037862983,0.8694594925253948,0.24832463451331163,0.23041923721274607,-0.013338224912755277,-1.284485542527071,1.9649710204252662,-2.0894102639269994,-1.057933111487171,0.9005550109029453,-0.4034732923929645,0.13822329954656462,-1.5256167690160714,0.12774277302288273,-0.21531705956807506,-2.0828199323858025,1.428600945982309,0.6192538697589299,-2.0266302608145184,1.1436837053705284,0.7787642353589276,-2.0303844430807976,0.9106625273828777,-0.3435631395246991,-1.7009427972983637,-0.6428330507000918,-0.5433286222864043,-2.083097855894489,1.605865596496004,0.4495243630495045,-2.53903894678494,0.12306332966903659,-0.3074898687696904,-1.401429662616559,1.8821158067833332,1.024508138245801,-1.5211515616641955,1.1922117802300716,0.7195987108868873,-1.3509956607435458,0.6154385043484901,0.40297242626840685,-1.1208210275726895,1.1051283194798636,2.3643511935503265,-1.0234933063924312,-0.8710878083461199,0.049449133975276775,-0.14352868747934433,1,22
-0.16318683675812604,-0.02716295290158167,0.8993321498794487,0.5368737869051132,-0.6050909762453532,1.4964607080784325,0.1771720620409574,0.7534102573363581,1.0966395841539458,0.726911000489515,2.303542121669649,1.480016069422621,-1.1430811907042429,1.4075414803159232,-2.202656357833558,-0.8352897006164465,-0.8943055893154597,-1.594130455892537,-0.9792414891102712,-0.9553394035068923,-0.4285287719097337,-1.3348644131260339,-1.3719293854742751,-1.2377466070032581,-0.0063402585399112135,-1.088870347588618,-0.39799912748012717,-1.2377862568730846,1.4283682223492715,1.1959743311749416,0.17814154052772904,-0.15203309180780722,1.732978150700059,-0.39961539850554645,-0.12176614040480083,-1.3050364799947383,-0.7572858356410098,0.2497846152730292,-0.918620709837348,-0.2242441538617702,-0.9753770272580251,1.0363403621656033,0.7988277880351099,-0.13414982605828418,-0.08561565944903332,1.486063180226239,-0.6474415220249244,0.03671427307144505,-0.9801960588196069,-1.5027333739410091,0.16329976518780395,-1.4933699309908475,0.011804394432598066,-0.9913989255271415,0.17111695766499413,-1.2316282267770078,0.09189317646496906,-1.1505186818929867,0.1528116778837278,-0.8614948079681747,-0.6947758204530159,-0.10303739061924154,1.0680228381802601,-0.9941506141374337,0.7436064786084366,-1.4388104248289593,0.31651165631239947,-0.7390544877719353,-0.38171089353300114,-0.8354275904706496,-1.3526185221662375,0.3365271340603745,-0.3414389115438721,-0.4422178381407766,-1.4110041955535226,-0.5423351272825947,2.792469237021272,-1.3276333425609668,-0.1775042597848035,-0.907835703082548,-1.3562854194285272,-1.176293103852476,-0.8046592888517351,-0.5539863806470556,-0.7364204532546963,-0.6295356646300495,-0.7586870275208515,-0.7635336977632387,-0.7835404483117704,-0.7116132234117696,0.6866282874078662,2.439918772129489,-0.013338224912755277,-0.4755745431539277,1.9649710204252662,-0.6895681551357845,1.213423420069719,-0.5988091701167036,-0.4034732923929645,0.5479577603627906,-0.22316794355136568,-0.526708776278246,0.8615365572798114,-0.48835697849499726,-1.0148335445303893,0.8128628988343446,-0.15597772144281652,-0.5428053769364922,0.42474765188562386,-0.31166540280047134,-0.6099690742900017,-0.5772543270657915,-0.008268122524075583,-1.169132338400345,0.592060232829808,0.13717946208737247,-0.6778977750186526,0.7583363420620786,-0.11214917938950282,-0.007520212945194418,1.671276433219851,0.20315208825728223,0.3877455291641347,0.3763835971425231,-0.04001512200340989,-1.587711148445219,-0.012312696834325022,0.30854687812436593,-0.7672800645975986,0.6544148636601111,-0.9484780248195085,-0.7118028022033144,0.4757032106843645,1.481560240721911,1.1479898931183963,-0.1558114289077124,-0.7415648853099451,2,68
3.237459017200115,4.164091758867559,1.5865947098309923,2.0243776411157013,2.3227685862321623,2.5481901213865674,2.7881287658024356,3.8952913304837242,3.342161507411085,3.0377089130356567,2.303542121669649,-1.459856940213686,0.0405827641670145,2.009859688148702,-1.5371229268447653,-0.8450947405098883,-1.4358144313876795,-1.4320450153251116,-1.020986771157755,-1.1185198590095558,-0.36389117918071856,-0.6883200818224111,-1.000692393637404,0.5173994479955242,-0.11778895456935135,0.3322830580714273,-0.63459771601847,0.13907097445135425,1.5734388311372194,0.20494153131154627,1.2481643607746522,-0.9645853519042039,-1.3248609172058823,0.532666858441232,0.9094510356896794,-1.0218732386888563,0.8347236902156191,-1.3100815869165672,-0.35937702418166945,0.1679924053131294,0.1694004305911825,0.4632775824318602,0.4447348266833393,0.3381384932120002,-1.0870773662305055,-1.784131753684053,1.020040401831724,0.9299345173874102,-0.9801960588196069,0.5226693315388162,-1.2514390224301937,0.43741497584857836,-1.2818829086251433,0.3826115770710068,-1.1871098921780068,0.039645845121249614,-1.239103117583733,0.2510811693684065,-1.255111732265476,0.877946668235719,2.0711650586457067,-0.41141753228032757,-0.9363095659113807,0.44620292612635726,-0.9198922387755654,0.6950185950444974,0.9130971478167426,-0.2288590820122184,0.230119089661219,-1.006549410542994,-1.8369527046205782,1.1719999295948025,1.3336457864400808,-1.3523508048121042,1.046592634048096,2.641975472201505,-0.8108066317935417,-1.0542568637279983,-0.2977961998920628,-0.4907530585647583,-1.0625489475579772,-1.176293103852476,-0.184821563974483,-0.4298099848441356,-0.09574097548134214,-0.7974349391194211,-0.3607079872726113,1.4294641925399496,2.580584772106963,1.2981058732905815,2.0413850327183054,-0.8743305302456252,-0.013338224912755277,0.5906526089196336,-0.5089133578079826,0.583015580128956,0.8472661008899809,-0.353397544075371,-0.4034732923929645,-1.6528129420516355,-0.23283959324541065,-0.9892234149900406,-0.2654032743051861,0.4882781197603558,-1.4111400334837916,-0.5036784988784834,0.08192756666543106,-1.621212174616311,0.05808761900255791,0.03462780309037332,-1.26731834066339,-0.9927053271388434,0.048504816878292625,-0.4775034315272372,-1.7922563629142367,-0.6259380753523187,-1.3928505299651017,-0.600436365593252,0.131379551594815,-0.5597797785845469,0.8511298738426071,-0.09858255932141208,-0.7152739672310225,-0.554558925533096,-0.55862941629984,-0.40651859969978915,0.896266981716144,-0.7345635161382168,-1.0416716872289233,-0.06219608290624603,-0.28728788847082737,-1.80028688431766,1.7085706439440893,-1.5245040158152996,-0.8710878083461199,3.1045862319465036,1.0525437081818574,3,87
-0.9360608944759081,-0.9072252857831149,-0.47519297002363864,-0.6441767269704232,-0.6050909762453532,-0.606998118537838,-0.47556711389941214,-0.5931102025839415,-0.8280934929236021,-0.6595677470381701,-0.4341140500939406,0.30406686556809814,0.435137415790767,1.0175157555717467,-0.9724278944906378,0.7721600748554608,-0.6822264083472274,0.5259260566721718,0.18907165364056694,-0.6031192946350231,-0.06009449335434708,1.6969042755544679,0.6375982734357296,-0.5569664980091106,0.3759274683895395,0.2870539372821371,0.312320520976946,-1.876190647867807,2.019179438478783,-0.9216925253745687,0.15845884650980907,-0.3093744055653126,-0.7349398601570748,0.07171383213033888,-1.1381814653443583,0.9482663843468665,-1.139177968087706,0.8414945682450174,-0.5249537045268553,-0.13372802482140878,-0.9313874085666558,0.40295518456515045,-1.036116909834097,0.09495785682968451,0.752387792228923,-1.1032206915397793,0.8881175945805779,-0.5836971375889815,1.0202040612204073,0.3504303613090358,0.9200615356218715,0.42257908743158973,0.8150857769018737,0.11733768177033989,1.8313159983604943,0.19172247952031746,1.7002343652813656,0.17991466529273117,1.7994215927725778,-1.3413407324382143,0.6709792194339051,-0.3186716250138358,-0.9363095659113807,0.8428163705376474,-0.8030914511589159,0.6950185950444974,0.3556320164110455,-2.01036107261582,1.463338899537069,2.187724564140766,1.674470118173396,-0.4016645825419628,-0.3414389115438721,1.1738737794847365,1.3289548229810482,-0.7897038885419528,-0.5717686748942788,1.4516941922408804,0.028710494684783663,2.478478148835697,2.3915743790679356,0.646398280664052,1.2970893184906709,2.109597309325579,1.4112093454785188,1.511180085109438,1.5005475241913806,-0.04205882180030054,-1.0152017658855155,2.078101746486249,1.2843150868095303,-0.8743305302456252,-0.013338224912755277,-0.6234247082414627,-0.5089133578079826,-0.5489141633433662,1.8417966258878495,1.1515696421050388,-0.4034732923929645,-0.9119799270404794,-2.081199312551759,-0.14949943116170908,0.08520022885459129,-1.7271973694341245,-0.42993982979916157,0.6321611383639577,-1.5051940129060302,0.17798781170627734,1.2971456611591243,-3.004466865786026,-0.28129444110330815,-0.006009201965343235,-1.9816534421211807,-0.8136736571787075,0.9831386162587242,-1.6379459590546686,0.4088304124999497,1.2894929459637083,-1.5701724868775053,0.9487321876569347,-0.39861726425605104,-2.3820672672473147,-0.2877366411677722,-0.35422952191935525,-1.886022161200515,-0.42986775473312955,-0.5549366715241894,-2.3576561542816394,0.35315239448031155,1.7481894663140232,-1.8394588315057647,1.0716365015686529,0.895402762432355,-1.0234933063924312,-0.8710878083461199,-0.889181051190932,1.0525437081818574,0,12
-0.9360608944759081,-0.9072252857831149,-0.47519297002363864,-0.4117542497500188,-0.6050909762453532,-0.606998118537838,-0.8019367018695969,-0.5931102025839415,-0.5073046467440108,-0.6595677470381701,-0.4341140500939406,-1.459856940213686,-1.1430811907042429,0.13872361627474142,-0.5287389404981092,-0.16162578323173615,0.4700704749135015,1.2727820867153221,1.0629488037442032,0.9921257047871889,0.10149948846819085,0.3513930995982797,-0.750391634093748,-0.049434665319003666,-0.03755109523427017,-0.10672452552089479,-1.3360768415160427,0.30778759758388985,-0.14148634899959237,2.953562669607254,-0.08330030425575369,-0.8711781166475869,0.06521224314022751,-0.780054333028841,-0.7038214663876763,-1.0949828231493346,-0.570829510947118,-0.08000354848017575,-1.3229882489116451,-0.9256018329669607,-0.5574756496900161,0.9261148897000699,2.020120640845615,-0.40772804198838924,-1.3305853832511543,-0.1609900829705708,-0.7368807133816336,-0.7935500865547804,1.0202040612204073,-0.28323893657336624,1.075294719300655,-0.294842088161325,1.147296239235995,-0.023419895327973176,0.7439569076941988,-0.3971009305372833,0.9278158733115249,-0.022176476051934835,0.8054394360485699,0.877946668235719,-0.8761113635640526,0.898618407858872,1.0680228381802601,-1.180769317352569,1.8313138132884863,-1.4388104248289593,1.2554002986798904,0.2478808873042402,0.1823198722241705,1.294088392651856,-1.2113543856170546,-2.1641688361351403,-1.3214204355344839,-0.8955540306652782,-1.4319199132522598,-0.6772635425149718,1.2962686919851454,-0.8909903555360865,-1.3288699722399988,-0.8830093551945843,-0.5675485968131614,0.29921896932757064,0.11441044113867302,0.9920097470992988,-1.2236978025471064,-0.8114265453268686,-0.43306781277229134,-0.8778267474207339,-0.6123125179311761,-0.5710734264395771,1.583158486510363,0.23041923721274607,-0.013338224912755277,-1.462190067872664,-0.5089133578079826,-1.0244586117844003,-0.7224857610128307,-0.24133744086015066,-0.4034732923929645,-0.6077831303738872,-0.0017946283321169172,2.4083264814836376,-0.4156619185165193,-0.5488658921912527,2.0257938276120906,-1.0845055861047301,0.0047984549956338685,2.8343472656040505,-1.7246387477737268,0.04843704136209377,2.1680816634747115,-0.25268323325871866,0.14207503181923178,1.378321543688054,1.298524409346561,-0.0941679522801198,1.4751313784486535,-0.2916243865806766,-0.265404329060668,1.8111276670050858,-0.6980358494255215,0.18375486091293736,2.0523265917677627,-0.919865485064034,0.5641326362792787,1.5644247810556655,0.2148322228032926,-0.8364088269860539,1.9187987118472836,0.3401118169204808,0.28068527783525227,2.6276105420269795,-1.1375169413469781,-0.021471887546694286,-0.8710878083461199,-0.889181051190932,-0.14352868747934433,0,12
-0.9360608944759081,-0.9072252857831149,-0.47519297002363864,-0.7784652693644347,-0.6050909762453532,-0.606998118537838,-0.8019367018695969,-0.5931102025839415,-0.5073046467440108,-0.6595677470381701,-0.4341140500939406,-1.459856940213686,-0.7485265390804904,0.0004866505426282358,0.8023279214794766,-0.21757218732961014,1.0469258471470935,1.2796233553107004,1.4073820527971128,1.37823027982901,-0.6676878650070901,0.23781098734223793,-0.8362426385417678,-0.09551669230103768,0.2635684562898472,-1.2106261039827102,-1.08841122793951,1.8130244581819936,1.3112188745085676,0.5712936497443979,-0.09814516439048124,-0.9453468298021129,-0.02236726129375478,-0.5252462774530801,1.4281621951580388,-0.7801751348381708,0.14330349467934594,0.3924100430055246,-0.9580437289671541,-2.1825805305840555,1.882377129870578,-0.5309452114985476,0.23599484020744976,-1.5695910824816752,-0.8463682919342321,-0.7826914875370818,-0.6809812187836903,1.4674809174305723,1.0202040612204073,1.6198953641137148,0.030998756370660307,1.6391219376245978,0.10320621475732941,1.852986882451846,-0.12243111627531093,1.7947509175631606,0.17289343778730973,2.0074270294955707,0.17504548928413324,0.42809111404505673,-0.671821954236429,0.3112276618377559,1.0680228381802601,-1.308947925615157,1.715425531825092,-1.4388104248289593,-1.3852240079786782,1.753375527250947,-0.4581896414322786,1.4842237482877942,1.5735671634954083,-0.9281268920568081,-0.820034539539287,-0.9543839182447936,-0.9229707825829886,-0.42989478125561387,-0.26190465669153074,-0.845427609063925,-1.2085780321327395,0.17459306483266804,-0.7960102971569226,0.412052245511927,-1.1110158655152043,-0.8582185503642097,-0.059646357015237655,-0.4756279963481256,-0.6260273474381047,-0.3170764725386482,-1.1813935806666804,-0.6413433249256734,1.393891000033169,-0.8743305302456252,-1.1804329047788507,0.3546609992606844,-0.5089133578079826,0.23472950521439626,-0.40475570017621937,0.5789425146752626,-0.4034732923929645,-0.28082330810639367,-1.5578556013295541,1.2886945030458619,1.1870969530710331,-1.5753943052487818,-0.10196204583772593,-0.5811221105086498,-1.8962711988373968,0.4284564872964291,0.9431290776858192,-1.4854506558967384,0.269678802910901,-0.09688910823132364,-2.0983533731149357,0.7707351932278143,-1.9814878387669388,-0.946096582439086,0.2753725649099462,0.14071238403692904,-1.1167051946998114,1.0507505803243027,-0.5418174571631891,-1.360479960445165,0.4386747404193185,0.022861120177098085,-1.811315717972011,-1.0396927450156537,0.3284046826221014,-2.171118427044549,1.3417692701372914,-0.590225201428825,-1.942431065855149,-0.030802504675364453,1.0659057053299767,-1.0234933063924312,-0.8710878083461199,-0.889181051190932,-1.339601083140546,0,4
-0.6269112713887953,-0.5262021301677384,-0.017017930055942886,-0.23270285989133685,-0.6050909762453532,-0.606998118537838,-0.47556711389941214,-0.14427004927717496,-0.18651580056441952,-0.6595677470381701,-0.4341140500939406,-1.459856940213686,1.6188013706620246,-1.0412276269386533,-1.0329309336714372,1.1597475341726915,-0.45742247652090107,0.3069002113339821,0.26826286975057767,-0.7217149262298551,0.20491963683461475,0.534871896319578,2.125813021774387,-1.3353876231906006,-1.4051059230587652,1.049922761139319,0.4696163443008042,0.6624990522420521,1.3109523230914102,-0.28413789329627764,1.5309456920018059,1.4715815765050262,-0.7973050509102169,1.1360628415933172,0.6461202863221909,1.6193468984243906,-1.593434169891522,-2.2702847453684227,1.0238077612869574,-0.7138282480423415,0.6553809799434537,1.391145738708887,-0.019738965213273545,1.4859285802109392,0.8078068581715534,-0.07046762571226015,1.3135127484709264,0.8772022379036966,1.0202040612204073,0.7182987792072085,2.165455031953925,0.715058030509352,2.110530807273551,0.7361296457063854,1.6459854262922224,0.6625647283715238,1.7358744802631956,0.7552225112174659,1.5764295431390998,1.147860000750117,-1.4143795263430157,0.7780487284124327,1.0680228381802601,0.4719165679054784,-0.6609686177894378,0.6950185950444974,-0.2898539252166044,0.10569528242038313,1.826612952058637,0.21031686552700943,-2.5432733873664928,2.230646965032263,1.2538798484408449,-0.7675125106392738,1.16511503434094,1.9583381683574608,-0.4832360982649223,-1.1719606254477486,0.2521098120268364,0.13487090821192613,-1.0027137403250874,1.3754748344706633,0.2711510152455643,-0.007610239114207457,-1.2236978025471064,-0.8067626765910528,-0.14764850107910896,2.1473674107010914,2.4043207261269393,0.77108163464486,-0.17005612506785295,-0.8743305302456252,-1.1804329047788507,0.9389534785969967,-0.5089133578079826,0.0538886586241425,-0.7472899665056516,-0.21556361712064992,-0.4034732923929645,-0.5643264451358028,-0.6186309532634215,-0.4680613869315051,0.23545887306592447,0.0668388436653831,-0.07599713794077873,-0.2584403953829563,0.07866859011600337,-0.3869582010137314,1.6258753458129076,-0.7248803018542703,-1.1827630408394276,0.734012891914783,0.4974315784488645,-0.7957629484349821,0.5163676424887272,0.08564709964532512,-1.5508210434389837,0.05424502991340792,-0.3609263744036545,-1.5500383100757986,-0.21636247328332983,0.010257438555188254,-1.148172262900082,0.14070194583223974,-0.8834400390324688,-1.1825346346313794,0.038163951974034445,-0.276795645274781,-1.0752981115709974,1.2578767134002,-0.5495961064976812,-0.7941368545683734,-0.6260081126541143,-1.5245040158152996,-0.8710878083461199,-0.473362534506395,-1.339601083140546,1,30
