sample_id,cheating_score,label_id,cheating_label,gaze_away_count,gaze_away_total_sec,head_turn_count,head_turn_max_angle,phone_detected_count,multiple_faces_count,audio_anomaly_count,whisper_detected_count,tab_switch_count,fullscreen_exit_count,identity_mismatch_flag,typing_pause_count,answer_change_count,session_duration_sec,audio_duration_ms,audio_rms_energy,audio_zero_crossing_rate,audio_spectral_centroid_hz,audio_spectral_rolloff_hz,audio_spectral_flatness,audio_tempo_bpm,audio_speech_rate_syl_per_sec,audio_mfcc_1,audio_mfcc_2,audio_mfcc_3,audio_mfcc_4,audio_mfcc_5,audio_mfcc_6,audio_mfcc_7,audio_mfcc_8,audio_mfcc_9,audio_mfcc_10,audio_mfcc_11,audio_mfcc_12,audio_mfcc_13,audio_delta_mfcc_1,audio_delta_mfcc_2,audio_delta_mfcc_3,audio_delta_mfcc_4,audio_delta_mfcc_5,audio_delta_mfcc_6,audio_delta_mfcc_7,audio_delta_mfcc_8,audio_delta_mfcc_9,audio_delta_mfcc_10,audio_delta_mfcc_11,audio_delta_mfcc_12,audio_delta_mfcc_13,audio_class_id,audio_is_suspicious,eye_left_pupil_x,eye_left_pupil_y,eye_right_pupil_x,eye_right_pupil_y,eye_iris_left_offset_x,eye_iris_left_offset_y,eye_iris_right_offset_x,eye_iris_right_offset_y,eye_head_yaw_deg,eye_head_pitch_deg,eye_blink_rate_per_min,eye_fixation_duration_ms,eye_saccade_velocity,eye_looking_away,face_recog_cosine_similarity,face_recog_euclidean_distance,face_recog_is_match,expression_face_width,expression_face_height,expression_mouth_open_ratio,expression_eye_openness_left,expression_eye_openness_right,expression_eyebrow_raise_left,expression_eyebrow_raise_right,expression_AU1,expression_AU2,expression_AU3,expression_AU4,expression_AU5,expression_AU6,expression_AU7,expression_AU8,expression_AU9,expression_AU10,expression_AU11,expression_AU12,expression_AU13,expression_AU14,expression_AU15,expression_AU16,expression_AU17,expression_emotion_id,expression_confidence,object_total_objects_detected,object_suspicious_object_count,object_avg_detection_confidence,object_phone_detected_flag,pose_shoulder_width_px,pose_head_tilt_angle,pose_torso_lean_angle,pose_hand_near_face,pose_movement_velocity,pose_nose_x,pose_nose_y,pose_nose_conf,pose_left_eye_x,pose_left_eye_y,pose_left_eye_conf,pose_right_eye_x,pose_right_eye_y,pose_right_eye_conf,pose_left_ear_x,pose_left_ear_y,pose_left_ear_conf,pose_right_ear_x,pose_right_ear_y,pose_right_ear_conf,pose_left_shoulder_x,pose_left_shoulder_y,pose_left_shoulder_conf,pose_right_shoulder_x,pose_right_shoulder_y,pose_right_shoulder_conf,pose_left_elbow_x,pose_left_elbow_y,pose_left_elbow_conf,pose_right_elbow_x,pose_right_elbow_y,pose_right_elbow_conf,pose_left_wrist_x,pose_left_wrist_y,pose_left_wrist_conf,pose_right_wrist_x,pose_right_wrist_y,pose_right_wrist_conf,pose_label_id,pose_is_suspicious,gaze_away_ratio,obj_suspicion_ratio
0,45,2,moderate_cheating,8,41.2,4,31.9,2,0,6,4,4,3,1,2,6,2081.0,536.0,0.00149,0.0518,488.9,1138.3,0.1014,128.3,0.76,-6.835,-3.408,14.893,-4.465,-5.007,-5.315,-18.138,6.232,-2.798,30.121,10.134,-16.785,14.691,-0.557,-0.035,0.454,0.309,-0.967,0.687,-2.846,0.842,1.574,2.331,0.6,-2.526,0.784,0,0,0.5528,0.5997,0.6194,0.6047,0.075,0.256,0.1094,0.2653,10.07,26.35,15.4,267.5,282.3,1,0.9342,0.5001,1,123.2,149.2,0.109,0.371,0.359,0.321,0.438,0.167,0.098,0.094,0.345,0.003,0.0,0.026,0.139,0.0,0.177,0.0,0.078,0.0,0.161,0.0,0.0,0.106,3,0.799,3,3,0.8913333333333333,1,119.6,14.94,18.44,0,0.463,0.3806,0.3961,0.863,0.2876,0.3029,0.874,0.2982,0.4227,0.802,0.2964,0.3993,0.898,0.3414,0.3734,0.874,0.3394,0.3852,0.895,0.3002,0.3788,0.928,0.2942,0.4035,0.966,0.2671,0.4386,0.846,0.3522,0.4325,0.878,0.2667,0.3455,0.931,1,0,0.01979817395482941,1.0
1,11,0,honest,1,4.4,0,0.0,0,0,1,0,1,0,0,4,5,1728.0,513.0,0.04535,0.117,1913.6,3553.4,0.1323,119.1,3.94,22.554,-8.752,19.831,3.865,-14.81,11.973,25.193,38.854,-10.086,-10.204,-14.398,-3.057,-5.715,2.869,0.536,0.359,1.649,-1.363,1.642,4.134,4.532,-1.142,-1.254,-3.125,0.189,-0.368,1,1,0.4711,0.5241,0.5263,0.5331,-0.0462,0.1535,-0.0649,0.1874,-4.77,15.93,21.2,188.6,430.2,1,0.9383,0.3861,1,127.3,155.9,0.122,0.389,0.227,0.371,0.247,0.003,0.135,0.283,0.058,0.0,0.132,0.159,0.0,0.0,0.098,0.108,0.187,0.3,0.0,0.0,0.192,0.0,0,0.729,3,2,0.8509333333333333,1,147.6,-8.49,19.16,0,0.694,0.5388,0.5026,0.733,0.5293,0.4819,0.904,0.5525,0.5303,0.898,0.4664,0.5814,0.91,0.537,0.5303,0.927,0.495,0.5031,0.816,0.5345,0.5993,0.955,0.5148,0.5409,0.943,0.4627,0.5678,0.923,0.4923,0.4843,0.802,0.511,0.4964,0.963,3,0,0.0025462962962962965,0.6666666666666666
2,18,1,minor_infractions,4,20.2,3,21.2,1,1,1,1,3,1,0,1,2,1808.0,409.0,0.00224,0.093,703.8,613.8,0.124,116.4,0.86,-3.54,13.752,13.341,5.989,11.201,6.671,5.129,1.008,-11.525,11.738,16.21,-6.925,25.551,0.08,1.001,3.16,0.893,0.551,0.864,0.573,-2.593,-0.056,3.028,2.703,-0.075,1.665,0,0,0.4843,0.5159,0.5418,0.5165,-0.0219,0.0246,-0.0366,0.0556,-2.9,2.84,14.1,318.8,210.8,0,0.8717,0.4305,1,124.9,148.5,0.124,0.345,0.295,0.271,-0.001,0.134,0.17,0.233,0.17,0.181,0.0,0.23,0.075,0.025,0.106,0.243,0.217,0.0,0.0,0.162,0.0,0.128,0,0.815,1,1,0.7618,1,157.6,-5.95,4.32,0,1.791,0.7473,0.3303,0.952,0.6254,0.3446,1.049,0.6448,0.3599,0.869,0.709,0.3993,0.817,0.7055,0.3082,0.888,0.623,0.2811,0.959,0.7195,0.3388,0.885,0.6922,0.347,0.86,0.6913,0.3831,0.864,0.5969,0.3793,0.608,0.7095,0.2952,0.914,2,0,0.011172566371681415,1.0
3,10,0,honest,2,9.2,0,0.0,0,0,1,0,0,0,0,2,7,2095.0,534.0,0.01181,0.1939,3127.7,5125.7,0.2529,128.6,2.78,-31.334,-3.081,-15.442,-20.374,12.838,-18.127,-8.097,11.682,3.708,3.935,-12.789,-17.073,1.818,-1.57,-0.164,-1.9,-1.804,0.922,-0.973,-0.801,0.478,0.425,-0.408,0.313,-2.142,0.658,2,1,0.5312,0.5834,0.593,0.5867,0.038,0.1943,0.0141,0.1975,2.84,20.69,16.5,187.5,586.9,1,0.4435,1.2992,0,118.4,142.4,0.032,0.314,0.319,0.329,0.491,0.815,0.419,0.148,0.072,0.586,0.0,0.083,0.428,0.0,0.121,0.108,0.0,0.383,0.562,0.682,0.26,0.415,2,0.94,2,2,0.8674999999999999,0,152.5,5.87,6.09,0,1.961,0.4601,0.2655,0.999,0.4658,0.1164,0.839,0.5903,0.2409,0.756,0.4462,0.1816,0.939,0.3937,0.2929,0.854,0.5127,0.2372,0.938,0.4883,0.2555,0.934,0.542,0.2816,1.005,0.4611,0.2172,0.905,0.4697,0.2598,0.806,0.4869,0.2045,0.882,4,1,0.004391408114558472,1.0
4,18,0,honest,2,6.8,2,30.6,0,0,0,0,1,0,0,0,2,2161.0,415.0,0.04475,0.0822,2218.6,3616.1,0.0662,114.2,3.61,0.236,-8.118,-9.543,2.653,-19.959,24.961,-29.576,-12.579,5.542,2.687,-10.371,4.548,17.674,-1.023,0.448,-1.719,-0.293,-1.643,4.119,-2.281,-1.996,1.431,-0.165,-0.774,0.221,0.534,1,1,0.5387,0.5772,0.5948,0.5781,0.1296,0.2232,0.1057,0.2543,10.23,23.69,15.1,183.1,463.1,1,0.374,0.9736,0,118.8,130.3,0.065,0.224,0.387,0.322,0.22,0.033,0.0,0.208,0.195,0.188,0.035,0.218,0.068,0.086,0.25,0.176,0.036,0.0,0.259,0.089,0.127,0.009,3,0.935,1,1,0.6838,1,150.6,0.95,0.26,0,0.298,0.4872,0.2301,0.749,0.4297,0.2695,0.761,0.4635,0.1986,0.912,0.3894,0.2193,0.827,0.4387,0.2719,0.863,0.4363,0.2498,0.908,0.3792,0.2058,0.799,0.4489,0.2761,0.986,0.401,0.2364,0.83,0.4986,0.2352,0.853,0.4329,0.1879,0.835,0,0,0.0031466913465987966,1.0
5,11,0,honest,1,4.6,1,22.1,0,0,0,0,1,0,0,1,1,1607.0,535.0,0.00671,0.1625,1675.2,2635.7,0.2779,116.7,1.5,-9.619,-2.182,-2.941,-4.357,-11.919,-18.669,2.949,-14.74,-20.594,31.08,-18.021,-8.373,-22.294,-1.383,-0.863,0.376,0.068,-1.073,-1.415,-0.371,-2.744,-1.291,2.886,-1.611,-2.246,-2.122,3,0,0.4461,0.4684,0.5025,0.4655,-0.1034,-0.2398,-0.1031,-0.2198,-13.02,-20.46,12.6,351.4,302.7,0,0.9292,0.3622,1,121.6,136.7,0.367,0.428,0.363,0.185,0.424,0.778,0.791,0.321,0.018,0.688,0.244,0.579,0.464,0.303,0.369,0.606,0.338,0.783,0.783,0.381,0.193,0.403,5,0.787,3,1,0.8273666666666667,1,164.2,-7.01,5.26,1,2.051,0.409,0.2907,0.894,0.5657,0.2944,0.897,0.4484,0.2676,0.981,0.5223,0.3233,0.995,0.5384,0.297,0.868,0.5303,0.2526,0.978,0.5126,0.2978,0.994,0.4825,0.3212,0.838,0.4689,0.3004,0.875,0.5404,0.3529,0.873,0.5218,0.2693,0.93,5,1,0.002862476664592408,0.3333333333333333
6,2,0,honest,1,3.7,0,0.0,0,0,0,0,1,0,0,2,2,1873.0,525.0,0.00546,0.224,1717.0,2264.2,0.2724,108.6,2.53,11.682,11.458,-10.773,-1.243,3.375,-15.589,-16.052,-12.148,-24.174,13.074,-1.913,-12.044,16.647,2.804,-0.064,-0.906,-0.673,-0.013,-1.208,-2.094,-1.867,-2.234,-0.47,-0.473,-0.261,2.493,3,0,0.6329,0.4757,0.6956,0.4757,0.2649,-0.0409,0.3058,-0.0511,29.84,-4.23,17.4,263.8,335.2,1,0.5011,1.1371,0,129.5,155.4,0.037,0.405,0.416,0.3,0.404,0.087,0.046,0.089,0.0,0.172,0.059,0.328,0.147,0.101,0.251,0.024,0.166,0.274,0.0,0.218,0.035,0.15,0,0.847,1,0,0.7473,0,151.5,4.41,24.17,0,1.561,0.535,0.4766,0.776,0.5339,0.4389,1.022,0.5538,0.4361,0.913,0.5783,0.4455,0.862,0.5016,0.4833,0.983,0.4543,0.4777,0.949,0.4951,0.4697,0.944,0.5415,0.5114,0.734,0.4865,0.4207,0.914,0.5257,0.4209,0.75,0.5154,0.4119,0.839,3,0,0.00197544046983449,0.0
7,14,0,honest,0,0.0,0,0.0,0,0,0,0,0,0,0,5,3,1562.0,551.0,0.00663,0.182,1833.0,3157.3,0.3727,122.8,3.0,-16.035,5.114,5.306,-32.231,15.562,-23.814,2.966,15.942,-25.165,-15.569,16.756,0.244,19.32,-0.509,0.719,0.597,-0.966,1.957,-2.455,0.89,-0.359,-1.923,-0.521,2.325,-0.267,3.756,3,0,0.4759,0.631,0.5341,0.6389,-0.0426,0.2633,-0.0675,0.2706,-4.49,27.36,16.3,390.8,255.1,0,0.9777,0.4305,1,96.6,129.1,0.026,0.39,0.318,0.244,0.306,0.781,0.471,0.043,0.007,0.472,0.176,0.025,0.37,0.183,0.11,0.316,0.074,0.291,0.406,0.646,0.18,0.113,2,0.94,2,0,0.8656,0,159.4,-1.33,-5.05,0,2.459,0.5466,0.3488,1.009,0.5734,0.3511,0.816,0.4882,0.2987,0.796,0.5717,0.3779,0.928,0.4865,0.2437,0.902,0.4177,0.4073,0.963,0.5234,0.4368,0.91,0.5701,0.2945,0.833,0.4661,0.3361,0.939,0.5047,0.3541,1.051,0.4832,0.3792,0.856,6,1,0.0,0.0
8,25,1,minor_infractions,2,8.0,3,33.4,1,1,2,1,1,1,0,5,0,1817.0,509.0,0.01068,0.1578,3294.9,4618.1,0.2647,96.7,0.83,-25.343,18.762,-17.566,-16.61,16.514,-25.84,-30.49,20.846,-0.648,25.564,25.835,-7.834,20.554,-2.036,1.666,-2.057,-0.547,3.209,-2.277,-4.613,1.93,-1.545,1.211,1.814,-1.104,2.15,2,1,0.5563,0.3798,0.6168,0.3738,0.15,-0.1807,0.141,-0.218,12.8,-19.8,12.9,395.9,304.6,0,0.9421,0.4006,1,108.4,131.3,0.007,0.398,0.396,0.441,0.589,0.344,0.152,0.124,0.077,0.629,0.157,0.046,0.302,0.11,0.0,0.122,0.064,0.063,0.39,0.205,0.384,0.256,1,0.784,2,2,0.8251,0,150.4,-1.09,11.82,0,0.854,0.4251,0.3883,0.834,0.3931,0.371,0.887,0.4142,0.4062,0.804,0.4091,0.3801,0.805,0.3895,0.3971,0.815,0.4039,0.4326,0.837,0.3751,0.4379,0.891,0.3417,0.4062,0.912,0.3727,0.3791,0.919,0.3848,0.3423,0.916,0.3952,0.3804,0.948,1,0,0.004402861860209136,1.0
9,3,0,honest,2,9.6,2,41.5,0,0,0,0,1,0,0,2,5,1517.0,483.0,0.0024,0.0521,773.5,585.4,0.0937,130.5,3.23,5.121,-25.382,30.306,19.636,-11.593,10.507,-1.673,-12.672,-29.217,5.713,8.204,4.462,24.641,2.3,-2.04,3.264,2.027,-1.455,0.685,-0.026,0.727,-3.149,0.5,1.853,1.663,2.372,0,0,0.5736,0.5813,0.6338,0.5718,0.2124,0.2759,0.1545,0.2722,16.84,27.07,15.9,421.4,261.6,0,0.46,0.673,0,123.2,153.0,0.327,0.303,0.374,0.617,0.365,0.0,0.793,0.583,0.125,0.248,0.151,0.032,0.0,0.379,0.215,0.105,0.081,0.054,0.236,0.8,0.633,0.331,4,0.981,3,2,0.8897666666666666,0,173.2,-3.5,13.65,0,1.272,0.5601,0.3736,0.974,0.6802,0.3382,0.959,0.6015,0.3924,0.839,0.5905,0.3566,1.009,0.6452,0.3034,0.99,0.6385,0.3866,0.811,0.5887,0.3267,0.823,0.6205,0.42,0.882,0.6991,0.3845,0.858,0.5999,0.348,0.74,0.6311,0.4038,1.014,2,0,0.0063282794990112065,0.6666666666666666
10,90,3,severe_cheating,13,62.7,10,53.7,4,1,8,5,7,9,1,0,4,1791.0,491.0,0.04955,0.1228,1805.2,3638.2,0.1154,122.4,2.29,-5.018,7.268,4.341,-0.971,4.5,24.76,-9.688,-7.688,-12.869,10.253,-16.448,10.907,7.315,0.078,-1.575,1.915,-0.525,-0.749,1.58,-0.962,-1.395,-0.68,1.968,-1.215,0.829,-1.081,1,1,0.5526,0.5185,0.6154,0.5175,0.0342,-0.0115,0.1059,-0.017,6.11,-0.68,12.2,273.5,181.4,0,0.9051,0.2837,1,98.0,122.2,0.103,0.29,0.399,0.681,0.665,0.569,0.195,0.166,0.0,0.688,0.093,0.0,0.459,0.174,0.269,0.066,0.049,0.093,0.0,0.018,0.312,0.075,1,0.799,1,1,0.9478,1,127.8,7.98,1.07,0,0.5,0.5087,0.2938,0.896,0.4832,0.2756,0.798,0.524,0.2732,0.824,0.5667,0.3406,0.844,0.467,0.3102,0.736,0.4805,0.2671,0.981,0.4693,0.3285,0.802,0.4704,0.3305,0.801,0.5455,0.3261,0.77,0.4712,0.2957,0.892,0.4423,0.2312,1.032,0,0,0.03500837520938024,1.0
11,19,1,minor_infractions,5,18.5,4,38.8,1,0,2,0,3,2,0,0,2,1780.0,503.0,0.00701,0.207,2944.3,4303.2,0.2869,111.1,1.03,40.783,10.412,2.139,29.786,4.995,-43.778,2.15,-9.129,28.811,34.466,-0.589,5.914,-24.378,3.26,0.876,-0.117,4.353,0.533,-4.484,1.571,-1.353,2.24,4.489,0.052,-0.113,-2.541,2,1,0.4416,0.5457,0.5014,0.5465,-0.0606,0.1498,-0.0862,0.1635,-7.86,16.21,16.1,175.5,357.7,1,0.9263,0.2727,1,125.3,165.1,0.041,0.341,0.363,0.351,0.228,0.211,0.172,0.168,0.277,0.087,0.014,0.0,0.0,0.175,0.067,0.143,0.182,0.025,0.159,0.103,0.0,0.099,3,0.713,2,2,0.9251,1,166.8,-13.87,0.95,0,2.525,0.5451,0.2444,0.792,0.5211,0.1523,0.932,0.4546,0.2731,0.984,0.5036,0.2821,0.973,0.5872,0.3107,0.887,0.5692,0.19,0.859,0.5,0.3299,0.775,0.5202,0.2541,0.841,0.504,0.2793,0.896,0.4467,0.2089,0.787,0.52,0.3104,0.755,4,1,0.010393258426966293,1.0
12,38,1,minor_infractions,7,29.2,4,48.8,0,1,2,1,1,2,0,1,1,1639.0,470.0,0.01082,0.2037,2964.3,4834.6,0.2752,118.7,1.58,13.681,-11.862,9.295,-3.488,6.245,11.598,-8.687,-17.102,-6.936,5.486,13.126,2.824,-12.952,1.377,-1.688,2.529,-1.282,1.236,1.683,-0.593,-2.348,-0.77,0.416,3.107,1.175,-2.399,2,1,0.5086,0.5255,0.5692,0.5281,0.0361,-0.0221,-0.0223,-0.0059,1.22,-1.18,12.7,319.6,269.7,0,0.9607,0.1747,1,142.3,130.4,0.157,0.338,0.359,0.335,0.253,0.162,0.0,0.07,0.467,0.067,0.195,0.224,0.028,0.019,0.179,0.029,0.0,0.255,0.024,0.048,0.092,0.0,3,0.859,2,1,0.82335,1,153.6,-11.58,-0.74,1,1.729,0.5018,0.2873,1.073,0.5346,0.3548,0.903,0.4681,0.3912,1.064,0.501,0.3822,0.768,0.428,0.271,0.882,0.5222,0.3707,0.969,0.4763,0.3117,0.877,0.5201,0.4252,0.808,0.5328,0.3073,0.854,0.4949,0.3953,0.863,0.482,0.337,0.94,5,1,0.01781574130567419,0.5
13,27,1,minor_infractions,2,6.7,3,3.7,1,0,2,0,3,1,0,3,1,1859.0,549.0,0.00225,0.0245,550.8,680.7,0.1426,125.6,1.06,-1.088,0.273,-14.282,9.353,-15.44,3.993,-13.657,4.782,11.7,46.243,24.274,-19.179,7.544,1.049,-1.545,0.267,0.317,-1.048,0.169,-2.947,-0.029,1.438,5.686,3.286,-2.665,1.148,0,0,0.5466,0.427,0.609,0.4259,0.043,-0.3065,0.013,-0.2915,4.86,-30.16,13.2,323.2,190.1,0,0.8988,0.3401,1,121.1,123.7,0.361,0.255,0.317,0.44,0.084,0.827,0.533,0.225,0.281,0.679,0.292,0.527,0.55,0.264,0.531,0.395,0.268,0.618,0.662,0.268,0.122,0.368,5,1.029,3,1,0.8731333333333334,1,152.8,-0.4,17.8,0,0.288,0.2687,0.3551,0.841,0.2619,0.3708,0.794,0.3272,0.348,0.919,0.3536,0.4119,0.955,0.3063,0.3682,0.829,0.4197,0.3959,0.969,0.3251,0.3473,0.947,0.2688,0.3868,1.009,0.3519,0.327,0.782,0.3293,0.3571,0.849,0.3474,0.3458,0.789,1,0,0.003604088219472835,0.3333333333333333
14,22,1,minor_infractions,4,24.6,1,12.2,1,1,3,0,3,1,0,0,6,1545.0,488.0,0.00696,0.2234,1655.7,2759.3,0.2836,128.7,0.43,-33.762,-17.719,-18.555,-8.978,2.953,10.425,-6.766,1.077,-30.345,-10.574,21.247,31.082,9.701,-2.532,-3.456,-1.686,-1.816,-0.507,-0.985,-0.454,-1.792,-4.159,-1.082,2.501,3.396,1.437,3,0,0.3643,0.5004,0.4284,0.4955,-0.2385,0.0536,-0.2837,-0.0154,-31.08,2.98,20.2,156.6,446.3,1,0.8673,0.5037,1,107.2,147.2,0.266,0.298,0.235,0.583,0.479,0.038,0.777,0.55,0.108,0.125,0.263,0.0,0.149,0.111,0.059,0.351,0.138,0.121,0.115,0.807,0.608,0.32,4,0.845,2,1,0.7733,1,128.7,-7.6,14.46,0,1.642,0.3577,0.3467,0.866,0.3036,0.4402,0.928,0.3163,0.4151,0.941,0.3097,0.4036,0.848,0.3395,0.2869,0.835,0.314,0.4538,0.913,0.2584,0.3462,0.857,0.3708,0.4765,0.963,0.3602,0.4242,0.936,0.3734,0.3801,0.911,0.3982,0.4166,1.062,1,0,0.015922330097087378,0.5
15,68,2,moderate_cheating,5,26.1,8,78.8,0,2,3,3,6,3,1,5,1,2098.0,390.0,0.00205,0.0815,390.3,1429.4,0.0996,113.3,0.43,-20.5,-19.346,0.038,-16.29,-6.159,-19.919,21.22,17.501,3.223,-1.426,25.459,-7.443,-1.813,-2.352,-1.414,0.463,-1.556,-0.324,-1.883,1.834,1.398,-0.222,-0.083,2.606,-1.32,0.137,0,0,0.3551,0.5205,0.4154,0.5117,-0.1912,0.0605,-0.2362,0.0463,-22.02,5.69,10.4,215.3,284.8,1,0.4975,0.9547,0,123.6,131.1,0.123,0.306,0.286,0.458,0.345,0.263,0.006,0.099,0.458,0.0,0.134,0.0,0.0,0.0,0.053,0.078,0.054,0.095,0.067,0.1,0.079,0.095,3,0.889,4,1,0.8302,1,149.6,11.63,1.08,0,2.038,0.4789,0.2976,0.952,0.4538,0.2614,0.943,0.4885,0.2939,0.913,0.4715,0.2921,0.83,0.5005,0.2487,0.925,0.5165,0.2861,0.938,0.4896,0.3366,1.009,0.5197,0.365,0.908,0.497,0.2218,0.878,0.5282,0.2773,0.931,0.4141,0.2864,0.918,6,1,0.01244041944709247,0.25
16,87,3,severe_cheating,27,150.4,11,165.2,3,3,11,10,13,8,1,0,4,2220.0,423.0,0.00188,0.0432,544.3,1369.2,0.0813,114.3,1.17,-14.818,8.534,-1.676,5.642,-9.772,1.756,23.397,2.336,19.369,-13.97,-20.14,6.753,14.141,-1.833,1.6,-2.479,-0.563,0.365,0.303,0.789,0.75,0.617,-1.872,-3.138,1.663,1.797,0,0,0.5456,0.4403,0.5976,0.4381,0.0626,-0.1491,-0.0013,-0.1591,3.78,-15.84,16.2,456.3,244.9,0,0.8672,0.2255,1,129.7,137.2,0.187,0.297,0.262,0.604,0.639,0.0,0.711,0.807,0.051,0.072,0.12,0.084,0.054,0.0,0.14,0.098,0.125,0.059,0.166,0.714,0.747,0.381,4,1.025,1,1,0.9052,0,168.6,8.53,3.27,0,-0.089,0.478,0.2629,0.862,0.5458,0.2324,0.841,0.5104,0.2164,0.884,0.5041,0.2439,0.798,0.5059,0.2989,0.736,0.4469,0.2336,0.828,0.5128,0.296,0.946,0.4917,0.2827,0.829,0.4491,0.3078,0.95,0.4309,0.2569,0.874,0.4751,0.2084,1.012,0,0,0.06774774774774775,1.0
17,12,0,honest,0,0.0,2,10.2,0,0,1,0,0,0,0,3,5,2019.0,451.0,0.02992,0.0965,2404.6,3114.2,0.1391,119.0,3.9,10.257,-8.532,5.917,4.944,4.688,-29.969,30.086,-14.904,2.926,-3.855,-11.343,-0.266,-17.538,1.778,-2.137,1.579,-0.857,-0.165,-1.799,0.679,-1.96,0.185,1.414,-1.942,1.427,-1.016,1,1,0.5294,0.5634,0.5962,0.5574,0.0136,0.3167,0.0268,0.2945,2.47,30.87,8.8,334.3,256.9,0,0.969,0.2767,1,124.0,115.9,0.316,0.465,0.436,0.329,0.345,0.73,0.792,0.044,0.078,0.732,0.158,0.682,0.689,0.21,0.348,0.507,0.292,0.554,0.629,0.302,0.033,0.492,5,0.949,1,1,0.8198,0,151.7,16.95,16.7,0,0.627,0.306,0.3259,0.89,0.3371,0.3042,0.929,0.3643,0.3457,0.982,0.218,0.3162,0.874,0.3128,0.2745,0.956,0.3546,0.3659,0.981,0.3507,0.4069,0.85,0.2798,0.3146,0.846,0.3265,0.3061,0.835,0.2795,0.3606,1.018,0.3319,0.4142,0.95,1,0,0.0,1.0
18,12,0,honest,0,0.0,2,23.7,0,0,0,0,1,0,0,0,1,1841.0,473.0,0.01373,0.178,3114.2,4374.4,0.318,121.5,2.36,-10.987,-0.47,-0.442,-1.133,-20.484,4.412,-2.338,44.396,-0.722,-12.528,0.589,-13.236,-10.818,-1.967,-1.061,-0.159,-2.274,-1.556,-1.085,1.633,3.633,-0.708,-2.307,-0.287,-1.48,-1.406,2,1,0.4698,0.5722,0.5285,0.5763,-0.0124,0.1489,-0.082,0.1753,-1.25,15.67,16.2,199.5,414.4,1,0.4496,1.4315,0,133.2,142.9,0.182,0.418,0.293,0.021,0.173,0.132,0.0,0.069,0.289,0.115,0.0,0.005,0.145,0.17,0.182,0.327,0.0,0.056,0.148,0.068,0.113,0.115,3,0.979,2,1,0.7608,0,144.6,-4.76,4.27,0,0.921,0.4995,0.5178,0.85,0.4481,0.4839,0.796,0.5033,0.5366,0.743,0.5054,0.4958,0.855,0.5148,0.4336,0.981,0.4954,0.4442,0.853,0.475,0.4703,0.827,0.5179,0.4892,0.798,0.5528,0.4513,0.896,0.4214,0.477,0.906,0.5275,0.5257,0.795,3,0,0.0,0.5
19,4,0,honest,0,0.0,2,2.4,0,0,0,0,1,0,0,0,2,1813.0,539.0,0.01276,0.2188,3120.7,4871.1,0.3613,109.6,2.23,-12.301,-1.202,4.189,-18.169,-16.702,28.108,19.462,7.942,-0.946,-13.673,-0.717,-9.356,22.166,-1.39,0.291,0.732,-1.626,-3.764,3.574,-1.024,0.368,-2.772,-1.442,-1.379,-1.38,2.796,2,1,0.6488,0.513,0.711,0.5169,0.3342,0.0152,0.323,0.0588,36.11,6.03,14.7,217.3,338.4,1,0.4167,1.3807,0,106.2,160.9,0.115,0.428,0.431,0.237,0.261,0.115,0.146,0.124,0.113,0.127,0.014,0.218,0.103,0.183,0.01,0.029,0.129,0.128,0.1,0.225,0.0,0.105,0,0.96,1,0,0.8886,0,163.4,-2.07,11.59,0,1.237,0.3547,0.4338,0.978,0.3514,0.3282,0.835,0.3283,0.3637,0.954,0.361,0.3566,0.867,0.3017,0.3895,0.721,0.4177,0.3561,0.888,0.3939,0.4144,0.839,0.3746,0.3688,0.878,0.3334,0.2617,0.905,0.2969,0.4341,0.832,0.3224,0.3352,0.963,1,0,0.0,0.0
20,30,1,minor_infractions,2,11.3,4,34.1,0,0,1,1,2,0,0,0,8,1602.0,448.0,0.03664,0.1124,2196.5,3228.4,0.1258,123.1,2.57,33.035,-20.897,-21.474,16.717,7.09,9.996,19.458,-5.148,23.636,23.639,-12.273,15.941,10.067,3.008,-2.997,-4.29,1.893,-1.184,1.231,2.481,-0.1,2.656,1.513,-0.128,2.188,1.699,1,1,0.564,0.634,0.6238,0.6311,0.1279,0.2881,0.1138,0.3,13.06,27.46,17.1,152.6,398.8,1,0.8738,0.339,1,117.4,141.2,0.354,0.361,0.227,0.789,0.625,0.169,0.745,0.655,0.088,0.041,0.184,0.21,0.065,0.294,0.204,0.166,0.0,0.057,0.219,0.915,0.712,0.306,4,0.803,1,0,0.9297,0,160.7,-4.97,4.5,0,0.963,0.4421,0.302,0.902,0.5061,0.3301,0.86,0.5101,0.3051,1.008,0.4326,0.2501,0.931,0.5486,0.2758,0.919,0.5118,0.222,0.881,0.4659,0.2232,0.864,0.5018,0.2504,0.888,0.4191,0.2513,0.882,0.4736,0.2544,0.979,0.4509,0.2805,0.834,0,0,0.007053682896379526,0.0
21,63,2,moderate_cheating,15,61.6,8,77.5,0,0,3,3,3,4,1,0,0,1724.0,472.0,0.00214,0.0726,655.8,513.4,0.0934,126.6,1.81,0.539,-17.515,-16.744,-8.538,-10.108,10.146,9.147,-5.647,-21.325,11.76,12.315,5.325,-27.486,-0.311,-1.244,-0.806,-1.528,1.507,2.351,1.714,-1.437,-2.291,2.459,2.332,0.776,-2.347,0,0,0.5684,0.512,0.6288,0.5129,0.081,0.0327,0.1421,0.0151,10.93,3.51,11.0,369.7,201.9,0,0.9109,0.4542,1,103.6,124.0,0.196,0.299,0.375,0.176,0.304,0.832,0.62,0.063,0.075,0.635,0.0,0.106,0.277,0.12,0.218,0.161,0.07,0.414,0.458,0.717,0.187,0.119,2,0.729,3,2,0.9133,1,148.7,0.32,13.05,0,0.298,0.3018,0.3317,0.84,0.2887,0.3322,0.879,0.3177,0.313,0.863,0.3195,0.3634,0.838,0.2914,0.3308,0.805,0.3349,0.3466,1.088,0.2854,0.3582,0.878,0.2702,0.2974,0.833,0.352,0.3715,0.878,0.3467,0.2786,0.945,0.2455,0.3511,0.897,1,0,0.0357308584686775,0.6666666666666666
22,1,0,honest,1,3.9,0,0.0,0,0,1,0,0,0,0,0,0,1956.0,492.0,0.00776,0.2004,1586.9,2294.5,0.3546,119.9,0.69,10.177,11.578,-22.652,-16.995,-18.679,-6.6,11.969,25.863,30.929,14.06,-16.564,-22.983,7.643,1.031,0.467,-2.99,-1.193,-0.655,-1.458,1.573,2.69,3.837,1.576,-2.345,-2.396,0.87,3,0,0.5566,0.5314,0.6181,0.5335,0.0674,0.1972,0.0941,0.1192,8.27,15.72,16.7,179.6,400.1,1,0.8589,0.2192,1,131.2,145.7,0.288,0.439,0.359,0.64,0.587,0.003,0.843,0.679,0.0,0.145,0.117,0.0,0.203,0.014,0.0,0.203,0.058,0.0,0.043,0.741,0.593,0.178,4,0.82,1,0,1.0,0,153.4,7.84,17.72,0,1.24,0.3018,0.3074,0.93,0.2541,0.4041,0.9,0.2734,0.3729,0.837,0.3373,0.3312,0.852,0.3955,0.3732,0.862,0.3058,0.3653,0.718,0.3253,0.3621,0.799,0.3338,0.2967,0.95,0.3137,0.3677,0.916,0.3028,0.4114,0.951,0.337,0.3984,0.958,1,0,0.0019938650306748464,0.0
23,59,2,moderate_cheating,13,75.8,9,141.0,2,0,4,1,6,3,1,2,2,1714.0,520.0,0.00227,0.0484,502.1,813.3,0.0455,89.1,1.54,24.126,11.049,9.637,-13.764,8.828,-6.802,5.46,-10.814,15.12,0.148,-0.852,-4.972,-1.975,2.974,1.36,0.772,-2.343,0.408,-0.446,-0.677,-1.053,0.047,-0.269,-0.76,-1.924,0.053,0,0,0.5059,0.5748,0.5639,0.5838,0.0202,0.2818,0.0318,0.249,3.73,24.57,11.5,346.2,128.4,0,0.2676,1.4188,0,111.0,153.3,0.052,0.332,0.332,0.28,0.401,0.825,0.575,0.088,0.088,0.578,0.1,0.245,0.302,0.084,0.149,0.238,0.2,0.234,0.482,0.606,0.227,0.102,2,0.744,1,1,0.862,0,141.7,-5.91,4.71,0,2.263,0.4514,0.393,0.937,0.596,0.2374,0.904,0.455,0.409,0.89,0.434,0.3656,0.806,0.4429,0.4065,0.958,0.617,0.4257,0.87,0.4744,0.297,0.748,0.5064,0.4078,0.855,0.4859,0.3354,0.888,0.5012,0.3852,0.917,0.4838,0.36,0.858,6,1,0.04422403733955659,1.0
24,1,0,honest,0,0.0,1,17.3,0,0,1,0,1,0,0,1,5,1745.0,555.0,0.00185,0.0207,644.8,670.8,0.0781,106.0,1.02,-16.306,-5.778,6.872,-7.929,0.765,2.669,2.575,1.27,-17.868,15.157,3.345,4.893,35.595,-1.832,-0.395,0.646,0.095,0.967,0.45,-0.596,-0.999,-2.259,1.546,-1.952,1.25,1.348,0,0,0.5328,0.3813,0.5934,0.379,0.079,-0.3419,0.0579,-0.2772,5.15,-31.35,9.5,360.5,216.2,0,0.3293,1.2629,0,144.4,172.6,0.093,0.446,0.36,0.373,0.199,0.028,0.128,0.118,0.025,0.028,0.102,0.192,0.28,0.059,0.04,0.064,0.047,0.0,0.095,0.048,0.216,0.134,0,0.89,1,0,0.843,0,150.0,-8.25,8.7,1,1.583,0.5147,0.2536,0.867,0.4981,0.3924,0.85,0.5319,0.3028,0.863,0.5309,0.323,1.086,0.5336,0.338,0.926,0.5139,0.3469,0.748,0.4728,0.2843,0.924,0.4605,0.3184,0.854,0.458,0.2819,0.766,0.4946,0.2838,0.91,0.4753,0.2834,0.723,5,1,0.0,0.0
25,86,3,severe_cheating,20,75.7,20,142.7,1,1,14,5,7,5,1,1,0,1906.0,428.0,0.03499,0.1565,2344.7,3784.0,0.0282,94.7,2.98,11.619,-3.096,11.912,21.325,-13.51,13.16,-32.038,-24.313,-24.116,8.897,-9.395,-14.715,9.889,2.763,0.475,0.894,1.66,-2.006,0.661,-2.893,-2.589,-2.454,0.237,-2.169,-1.278,0.313,1,1,0.4649,0.4911,0.5268,0.4918,-0.0529,-0.0517,-0.0363,-0.0116,-3.45,-2.16,9.8,450.8,228.3,0,0.8785,0.3199,1,93.5,145.9,0.079,0.33,0.461,0.364,0.319,0.12,0.196,0.151,0.027,0.095,0.056,0.186,0.146,0.007,0.0,0.0,0.155,0.17,0.121,0.012,0.0,0.179,0,0.808,1,0,0.8548,0,156.1,8.23,4.63,1,2.654,0.5268,0.4189,0.809,0.5166,0.358,0.772,0.5475,0.3753,1.016,0.4852,0.3983,0.88,0.5311,0.4563,0.837,0.5731,0.3252,0.917,0.5231,0.382,0.863,0.5327,0.26,0.869,0.5444,0.4156,0.857,0.5324,0.3847,0.831,0.4575,0.3989,0.875,5,1,0.03971668415529906,0.0
26,88,3,severe_cheating,19,105.2,9,50.3,1,4,11,9,12,5,0,3,4,1543.0,498.0,0.00123,0.0643,653.6,768.4,0.1245,127.9,1.46,-11.24,15.728,-5.315,22.675,15.606,2.922,2.543,11.501,-6.36,-7.85,14.999,-3.996,-3.468,1.053,2.213,-0.619,1.219,0.824,1.151,1.905,1.6,-1.197,-2.215,0.519,0.14,-1.056,0,0,0.6874,0.5416,0.74,0.5449,0.3783,0.1175,0.3693,0.0909,38.9,9.24,13.0,182.3,398.8,1,0.5541,0.7897,0,106.0,126.7,0.241,0.325,0.344,0.729,0.476,0.121,0.884,0.665,0.0,0.133,0.0,0.191,0.064,0.0,0.027,0.2,0.237,0.0,0.0,1.0,0.52,0.0,4,0.705,2,0,0.919,0,189.7,-4.47,15.77,0,1.197,0.3219,0.2267,0.837,0.3878,0.2636,0.882,0.384,0.2768,0.824,0.4089,0.2612,0.907,0.3434,0.2285,0.785,0.3814,0.2785,0.76,0.3486,0.2629,0.944,0.3737,0.2748,0.822,0.4096,0.2961,0.81,0.3613,0.2899,0.796,0.329,0.3202,0.9,1,0,0.06817887232663643,0.0
27,55,2,moderate_cheating,12,26.4,5,74.2,0,0,6,1,3,2,1,3,0,1589.0,505.0,0.05035,0.0773,2130.5,3358.0,-0.0321,127.2,2.43,2.117,21.76,7.365,23.666,-25.102,25.483,14.535,-6.287,5.923,3.719,-1.463,-0.285,-1.712,1.521,1.989,0.401,3.528,-1.455,2.088,0.321,0.04,0.015,0.374,0.912,-0.272,-0.096,1,1,0.4539,0.549,0.5106,0.5379,0.0159,0.1695,-0.0178,0.1396,-0.45,14.5,10.7,398.1,144.1,0,0.9368,0.4421,1,97.8,139.1,0.261,0.294,0.301,0.633,0.43,0.009,0.726,0.729,0.143,0.029,0.103,0.175,0.11,0.006,0.0,0.146,0.156,0.149,0.078,0.595,0.54,0.371,4,0.741,2,1,0.95885,0,154.1,16.3,12.04,0,1.566,0.4607,0.2423,0.834,0.6074,0.3214,0.885,0.5267,0.3219,0.977,0.473,0.31,0.958,0.4636,0.2873,0.907,0.4474,0.2336,0.878,0.5076,0.2191,0.868,0.4334,0.2581,0.855,0.4468,0.2742,0.829,0.4637,0.3005,0.818,0.4067,0.2696,0.974,0,0,0.016614222781623663,0.5
28,52,2,moderate_cheating,5,28.2,5,45.4,1,0,3,3,6,1,0,3,6,1765.0,451.0,0.00193,0.0698,693.0,732.2,0.0657,99.6,2.62,7.4,-1.67,14.64,9.721,-15.314,6.74,-4.265,6.185,-4.834,15.896,-18.712,2.208,24.631,0.625,-0.253,2.283,2.951,-0.097,0.53,-1.618,1.662,-1.231,2.64,-0.213,-0.606,2.69,0,0,0.4615,0.5892,0.5111,0.5949,-0.0871,0.1944,-0.0808,0.2219,-6.81,23.31,14.9,199.6,380.5,1,0.2747,1.8336,0,121.7,122.2,0.142,0.336,0.295,0.763,0.72,0.567,0.266,0.226,0.019,0.531,0.082,0.126,0.312,0.176,0.169,0.043,0.098,0.0,0.108,0.12,0.36,0.142,1,0.831,2,1,0.837,0,163.5,14.0,9.56,0,1.184,0.3686,0.2684,0.886,0.2868,0.3177,0.822,0.3282,0.3616,0.961,0.3553,0.3495,0.851,0.3788,0.3145,0.874,0.417,0.3533,0.911,0.3176,0.3462,0.858,0.3533,0.3324,0.91,0.3412,0.3106,0.956,0.3213,0.3617,0.653,0.4597,0.3009,0.866,1,0,0.015977337110481587,0.5
29,24,1,minor_infractions,7,31.9,3,23.3,1,0,1,0,1,0,0,5,5,1936.0,485.0,0.00205,0.1154,523.3,524.0,0.1047,90.7,1.16,18.681,13.289,15.467,18.983,-9.377,-3.277,-7.23,5.756,3.445,30.02,6.675,10.046,1.22,2.746,0.939,2.114,2.582,-0.276,-1.159,-1.643,0.401,0.905,3.925,-0.207,2.179,-1.132,0,0,0.5321,0.5266,0.5948,0.5177,0.08,0.1901,0.0744,0.1497,8.25,15.85,9.9,314.2,104.7,0,0.3527,1.2628,0,119.3,128.8,0.051,0.366,0.26,0.659,0.572,0.481,0.353,0.097,0.25,0.434,0.277,0.047,0.296,0.173,0.088,0.051,0.271,0.0,0.0,0.025,0.33,0.199,1,0.93,2,2,0.8656,1,167.1,1.75,19.11,0,1.252,0.711,0.3126,0.67,0.693,0.3415,0.838,0.6444,0.2917,0.885,0.621,0.3523,0.768,0.6572,0.3138,0.783,0.7159,0.3167,1.037,0.6653,0.3409,0.92,0.6743,0.2424,0.762,0.7005,0.3049,0.888,0.6313,0.2292,0.98,0.6993,0.3801,0.907,2,0,0.016477272727272726,1.0
30,14,0,honest,1,6.3,0,0.0,0,0,0,0,1,0,0,4,6,1590.0,519.0,0.01012,0.1739,2937.6,5208.8,0.2434,98.1,2.16,-0.408,1.797,-2.975,-17.822,-18.672,22.771,4.696,-19.336,-10.667,5.755,-2.756,3.707,39.556,0.081,0.252,-0.024,-2.612,-1.034,3.016,1.004,-2.193,-1.894,-0.083,-1.236,1.157,4.221,2,1,0.5115,0.4663,0.5719,0.4673,0.0355,-0.0379,0.0393,-0.0669,3.48,-6.06,8.4,386.1,242.3,0,0.405,1.0438,0,120.1,125.4,0.093,0.235,0.344,0.578,0.696,0.483,0.14,0.0,0.001,0.543,0.197,0.234,0.407,0.049,0.002,0.073,0.156,0.086,0.02,0.11,0.228,0.169,1,0.831,1,1,1.0,0,152.7,-8.91,9.49,0,1.526,0.619,0.3811,0.854,0.5316,0.4038,0.924,0.5222,0.347,0.78,0.6506,0.3568,0.867,0.5796,0.3308,0.994,0.6134,0.39,0.862,0.574,0.3125,0.835,0.5574,0.3567,0.857,0.5804,0.3782,0.833,0.6371,0.3028,0.943,0.5825,0.4293,0.917,2,0,0.003962264150943396,1.0
31,1,0,honest,0,0.0,1,11.8,0,0,0,0,1,0,0,2,8,2086.0,503.0,0.00743,0.2358,1805.1,2740.0,0.3198,127.7,2.23,4.335,19.68,-2.054,7.869,-5.085,-18.845,-1.94,3.04,5.889,-13.467,-26.816,10.365,4.616,0.952,2.12,0.428,1.958,0.338,-2.791,-2.2,-0.41,-0.224,-0.404,-3.252,0.672,1.144,3,0,0.567,0.4066,0.6173,0.4132,0.0841,-0.2249,0.1022,-0.2171,11.61,-22.74,7.6,287.7,222.6,0,0.892,0.3166,1,120.5,112.7,0.086,0.326,0.376,0.484,0.301,0.0,0.164,0.0,0.169,0.095,0.0,0.084,0.066,0.07,0.089,0.149,0.084,0.206,0.162,0.046,0.361,0.0,0,0.796,3,1,0.8333666666666667,0,163.2,-0.13,6.43,0,2.919,0.5521,0.2769,0.775,0.5622,0.2713,0.837,0.5349,0.3313,0.821,0.5104,0.2899,0.895,0.5724,0.3106,1.02,0.5139,0.2438,0.837,0.5311,0.2127,0.967,0.5126,0.2184,0.996,0.5182,0.234,1.018,0.5688,0.253,0.828,0.5172,0.3422,0.773,4,1,0.0,0.3333333333333333
32,36,1,minor_infractions,8,40.5,4,23.3,1,0,2,0,1,2,0,4,6,1513.0,612.0,0.00913,0.1543,3150.9,4676.7,0.3605,138.6,2.09,-0.606,20.439,11.523,-6.788,16.65,-18.778,2.034,5.832,-24.611,2.725,37.926,-1.759,7.545,0.75,0.123,1.097,-0.76,1.893,-3.475,0.392,0.562,-3.704,-0.026,3.384,-0.984,0.892,2,1,0.4254,0.4551,0.4753,0.4482,-0.0652,0.0021,-0.0911,-0.0038,-8.66,1.94,13.8,294.9,305.4,0,0.3211,1.1543,0,123.6,138.0,0.2,0.431,0.346,0.37,0.362,0.221,0.069,0.104,0.089,0.111,0.08,0.169,0.328,0.0,0.03,0.0,0.075,0.087,0.146,0.048,0.0,0.0,0,0.976,3,2,0.8797,0,166.0,-4.31,-2.34,0,1.112,0.4011,0.4173,0.913,0.4346,0.3097,0.891,0.4699,0.2899,0.905,0.4086,0.2857,0.986,0.4528,0.2863,1.053,0.4683,0.3074,0.912,0.5019,0.3026,0.89,0.4449,0.2955,0.79,0.4553,0.2585,0.77,0.4638,0.2408,0.848,0.5315,0.2526,0.843,0,0,0.026768010575016522,0.6666666666666666
33,2,0,honest,0,0.0,2,8.7,0,0,0,0,0,0,0,3,7,1516.0,492.0,0.0024,0.0231,456.8,748.1,0.1221,132.2,2.58,-0.872,-15.583,8.304,-1.771,31.381,14.269,8.118,-21.847,2.386,27.162,19.307,-24.034,-2.828,-1.055,-2.096,-0.25,1.879,4.149,2.273,1.268,-1.029,0.182,2.514,2.913,-1.763,-0.839,0,0,0.4688,0.4101,0.5254,0.4111,-0.1021,-0.2938,-0.058,-0.2986,-7.94,-29.53,9.9,295.7,345.1,0,0.9851,0.3442,1,102.9,119.1,0.274,0.323,0.263,0.195,0.312,0.885,0.752,0.226,0.044,0.794,0.286,0.451,0.636,0.369,0.422,0.482,0.426,0.692,0.636,0.291,0.0,0.332,5,0.885,3,1,0.8932666666666668,1,142.9,23.4,11.44,0,0.559,0.3554,0.3268,0.821,0.3815,0.3497,0.887,0.4047,0.3397,0.774,0.3623,0.3597,0.934,0.3667,0.2803,0.966,0.3599,0.3851,0.918,0.3598,0.3745,0.865,0.3458,0.3756,0.953,0.3967,0.2992,0.995,0.3404,0.296,0.83,0.4652,0.3638,0.843,1,0,0.0,0.3333333333333333
34,2,0,honest,3,15.5,1,14.4,0,0,1,0,1,0,0,1,7,1843.0,523.0,0.02907,0.1332,2272.6,4080.6,0.1857,173.9,4.31,-3.31,25.172,5.811,9.402,15.706,-10.227,-7.014,4.116,25.031,-3.432,-31.577,9.217,-48.126,0.172,2.405,1.902,0.529,-0.708,-0.559,-0.806,1.358,3.731,-0.728,-3.814,2.806,-4.912,1,1,0.5014,0.4783,0.5662,0.4804,0.0034,0.0167,0.029,0.0423,2.34,2.22,15.3,312.7,147.1,0,0.3869,1.2518,0,129.0,131.0,0.056,0.333,0.324,0.278,0.369,0.306,0.249,0.092,0.219,0.165,0.294,0.288,0.04,0.1,0.092,0.216,0.152,0.116,0.161,0.032,0.138,0.003,3,0.79,2,2,0.7763500000000001,0,162.1,1.24,0.33,0,2.639,0.4971,0.4241,0.851,0.4684,0.3038,0.828,0.5166,0.3349,0.881,0.4615,0.2255,0.759,0.5319,0.3344,0.819,0.5474,0.2933,0.859,0.5015,0.3062,0.937,0.5469,0.3936,0.895,0.4637,0.3153,0.949,0.4742,0.3601,0.739,0.4871,0.2894,0.919,6,1,0.008410200759631037,1.0
35,18,0,honest,2,11.0,0,0.0,0,0,1,0,1,0,0,0,4,1485.0,596.0,0.00833,0.1834,1849.8,2838.8,0.2821,107.9,1.01,-0.322,-9.833,-1.259,8.212,-4.135,7.989,1.359,-29.483,4.659,5.44,-2.032,29.929,14.406,-0.091,1.061,-0.807,-0.59,0.059,0.689,-0.489,-4.113,-1.346,1.907,-1.297,2.337,1.988,3,0,0.4246,0.5469,0.4913,0.5544,-0.188,0.1663,-0.1324,0.1692,-14.86,19.52,10.8,356.5,255.3,0,0.944,0.4243,1,115.2,120.1,0.21,0.359,0.299,0.307,0.308,0.911,0.627,0.259,0.055,0.705,0.457,0.734,0.503,0.218,0.487,0.483,0.274,0.558,0.615,0.319,0.217,0.501,5,0.903,2,1,0.76445,1,150.5,6.95,-5.17,0,0.593,0.5884,0.1917,0.926,0.493,0.2166,1.075,0.429,0.193,0.812,0.4699,0.2047,0.808,0.4643,0.2434,0.871,0.5004,0.2321,1.089,0.4929,0.1825,0.916,0.4811,0.2084,0.937,0.5207,0.2413,0.785,0.5329,0.2991,0.886,0.5618,0.2191,0.888,0,0,0.007407407407407408,0.5
36,9,0,honest,2,11.2,2,25.8,0,0,0,0,0,0,0,4,3,1771.0,582.0,0.00164,0.0583,587.9,487.2,0.1911,92.2,0.29,-4.042,-10.112,21.116,4.228,9.45,10.671,-3.97,-21.61,-14.229,0.001,3.139,47.792,-23.32,-0.7,-1.088,2.391,0.944,1.851,2.519,-1.664,-1.833,-0.705,-0.965,2.007,6.123,-1.612,0,0,0.4413,0.4021,0.4997,0.3927,-0.0299,-0.2219,-0.1217,-0.2039,-7.91,-19.46,8.3,309.7,273.1,0,0.3883,1.3766,0,140.1,119.7,0.28,0.451,0.434,0.56,0.566,0.142,0.99,0.592,0.17,0.033,0.234,0.0,0.196,0.031,0.135,0.209,0.139,0.128,0.24,0.905,0.631,0.337,4,0.583,2,2,0.8805499999999999,0,140.5,-0.84,2.72,1,2.428,0.573,0.3383,0.855,0.51,0.3144,0.903,0.5327,0.2482,1.046,0.5166,0.2715,0.851,0.5034,0.3233,0.781,0.5077,0.2787,0.81,0.5493,0.2637,0.999,0.536,0.2533,0.804,0.5248,0.2771,1.014,0.5214,0.2525,0.961,0.4633,0.2909,0.825,5,1,0.006324110671936759,1.0
37,46,2,moderate_cheating,15,68.6,7,45.1,0,2,6,3,4,1,0,4,1,2180.0,546.0,0.00159,0.0432,607.4,445.4,0.1268,113.2,2.14,-0.635,10.797,11.46,-11.001,-35.121,14.984,12.56,24.875,-0.778,14.062,-34.326,-11.845,-9.32,-0.054,-0.06,0.077,-0.589,-3.642,2.424,1.948,2.403,0.028,1.836,-3.646,-1.343,-0.268,0,0,0.5364,0.4277,0.6013,0.4223,0.0777,-0.1893,0.091,-0.2141,4.26,-18.06,14.7,268.3,224.7,0,0.9247,0.308,1,116.6,147.3,0.088,0.232,0.36,0.305,0.343,0.039,0.114,0.059,0.038,0.0,0.113,0.0,0.032,0.0,0.057,0.151,0.168,0.203,0.146,0.044,0.17,0.0,0,0.803,2,2,0.80795,1,146.9,-0.94,4.18,1,2.527,0.4644,0.3247,0.782,0.5015,0.3954,0.901,0.5081,0.365,0.812,0.4605,0.3681,0.945,0.5365,0.3631,0.702,0.5433,0.2739,1.006,0.5466,0.3013,0.815,0.5291,0.3659,0.925,0.5646,0.3254,0.912,0.5001,0.3024,1.003,0.4933,0.3705,0.881,5,1,0.03146788990825688,1.0
38,6,0,honest,3,16.9,2,21.9,0,0,1,0,1,0,0,3,6,1873.0,466.0,0.02894,0.1456,1823.3,3109.6,0.033,155.7,4.1,17.895,27.198,3.779,-8.222,6.104,5.8,-19.635,6.77,21.666,30.807,12.837,-13.631,-4.325,0.593,2.754,-0.703,0.021,1.166,1.189,-2.129,0.483,2.626,2.623,1.784,-0.55,-0.148,1,1,0.5038,0.4718,0.559,0.4649,0.0591,-0.0042,0.0578,0.0014,4.64,-0.0,15.1,403.0,148.4,0,0.158,1.305,0,104.4,159.6,0.11,0.242,0.321,0.41,0.375,0.208,0.072,0.095,0.322,0.0,0.0,0.263,0.135,0.138,0.01,0.0,0.208,0.242,0.0,0.205,0.155,0.053,3,0.674,1,1,0.8929,0,134.4,3.8,9.04,0,0.365,0.5371,0.2958,0.86,0.5277,0.2895,0.822,0.5234,0.3107,0.711,0.5381,0.2706,0.829,0.4964,0.2061,0.83,0.5763,0.3069,0.805,0.5753,0.2421,0.806,0.4925,0.2738,0.849,0.5595,0.2815,0.858,0.5354,0.281,0.911,0.5569,0.3373,0.821,0,0,0.009022957821676454,1.0
39,39,2,moderate_cheating,12,47.5,6,123.9,1,2,3,1,4,1,0,0,5,1977.0,440.0,0.00247,0.0789,262.5,174.2,0.1694,116.6,2.16,5.302,-7.894,-10.4,-17.188,12.706,6.796,-6.821,-19.258,-10.612,-28.089,3.93,-0.927,5.002,-1.678,0.147,0.612,-2.083,1.065,1.465,-0.92,-3.139,0.535,-3.403,0.047,0.544,1.01,0,0,0.5077,0.5271,0.5597,0.5254,-0.056,0.2066,-0.0072,0.1573,-2.19,19.77,11.7,102.9,319.9,1,0.4143,0.7184,0,96.7,165.5,0.083,0.228,0.356,0.142,0.175,0.819,0.623,0.0,0.097,0.415,0.056,0.112,0.429,0.075,0.124,0.174,0.118,0.501,0.485,0.68,0.165,0.0,2,0.859,1,0,0.849,0,186.0,10.06,16.07,0,-0.095,0.3069,0.3696,0.94,0.2944,0.3615,0.691,0.3198,0.3397,0.943,0.2763,0.337,0.831,0.2768,0.3866,0.895,0.3518,0.3465,0.847,0.3188,0.3258,0.899,0.2892,0.4147,0.759,0.3322,0.3308,0.848,0.4041,0.3672,0.982,0.3654,0.3448,0.867,1,0,0.024026302478502782,0.0
40,80,3,severe_cheating,13,50.4,16,228.4,3,3,12,5,11,6,0,1,8,1677.0,539.0,0.00772,0.1535,1835.4,2621.6,0.2779,137.1,1.69,15.976,-11.273,23.576,-23.289,1.135,32.814,16.193,-28.192,-6.656,1.259,-10.896,-17.968,26.307,0.341,0.062,2.066,-1.186,-0.713,3.544,2.821,-3.479,-0.294,-1.113,0.229,-1.49,1.794,3,0,0.4746,0.4648,0.533,0.4632,-0.0955,-0.1811,-0.1092,-0.1485,-10.1,-14.25,17.2,341.1,151.5,0,0.4003,1.1421,0,107.3,142.3,0.185,0.349,0.393,0.27,0.349,0.042,0.144,0.012,0.194,0.044,0.03,0.2,0.0,0.15,0.134,0.177,0.013,0.1,0.155,0.016,0.024,0.078,0,0.764,2,0,0.95185,0,186.4,14.22,10.87,0,0.465,0.6562,0.3257,0.769,0.6422,0.3981,0.986,0.64,0.2561,0.823,0.6006,0.301,0.87,0.6859,0.3319,0.894,0.6372,0.3303,0.814,0.6007,0.3315,0.811,0.6998,0.3515,0.862,0.6955,0.3004,0.851,0.6486,0.3963,0.981,0.7027,0.3547,1.055,2,0,0.030053667262969586,0.0
41,76,3,severe_cheating,16,52.8,18,303.1,2,4,11,8,10,9,0,1,4,1966.0,546.0,0.00304,0.0689,324.6,954.6,0.0679,136.1,2.12,-1.062,-8.814,14.569,17.016,-21.392,-12.099,21.916,9.089,-9.759,10.427,9.733,-13.7,12.659,0.679,0.321,-0.003,1.597,-2.064,0.822,4.204,1.201,-1.323,2.53,1.496,-2.638,2.807,0,0,0.6924,0.5391,0.7528,0.5338,0.3706,0.0251,0.4014,0.0413,36.93,5.24,15.4,227.2,486.9,1,0.8693,0.379,1,121.2,141.4,0.075,0.347,0.383,0.491,0.457,0.316,0.155,0.043,0.333,0.224,0.0,0.108,0.171,0.082,0.0,0.128,0.0,0.045,0.076,0.0,0.064,0.118,3,0.956,2,0,0.8796999999999999,0,166.0,10.56,21.03,0,0.124,0.5544,0.3438,0.927,0.524,0.348,0.898,0.5303,0.3884,0.771,0.4424,0.3622,0.785,0.4683,0.4244,1.011,0.4869,0.4394,0.96,0.5126,0.412,0.922,0.5156,0.3854,0.803,0.5162,0.358,0.851,0.5162,0.375,0.792,0.5085,0.3705,0.854,3,0,0.026856561546286874,0.0
42,45,2,moderate_cheating,8,42.6,6,123.8,2,2,2,2,6,1,1,0,4,1725.0,416.0,0.0545,0.0958,1921.1,3311.2,0.0788,149.6,2.68,1.18,-0.033,-11.901,-34.526,28.104,14.686,19.976,-11.026,-18.586,13.014,-5.84,-10.314,-8.917,-0.702,-0.511,-1.773,-3.919,3.063,0.646,3.039,-2.162,-2.403,2.288,-1.199,-2.813,-1.568,1,1,0.4681,0.597,0.5206,0.6002,-0.0228,0.347,-0.0142,0.3007,-1.83,30.82,16.7,174.7,292.9,1,0.8798,0.3158,1,119.0,125.7,0.048,0.312,0.345,0.072,0.354,0.286,0.258,0.0,0.313,0.003,0.071,0.069,0.202,0.038,0.317,0.046,0.0,0.028,0.036,0.068,0.055,0.033,3,0.963,1,0,0.8631,0,185.2,7.19,18.26,0,1.031,0.5,0.4266,0.901,0.5367,0.477,0.886,0.4639,0.4335,0.837,0.4094,0.5348,0.943,0.4794,0.4643,0.94,0.5006,0.4277,0.926,0.4813,0.4006,0.823,0.5334,0.4474,0.773,0.4634,0.504,0.84,0.4426,0.5045,0.883,0.4114,0.545,0.99,3,0,0.024695652173913046,0.0
43,96,3,severe_cheating,23,123.6,17,218.0,2,2,10,9,10,9,0,4,7,1915.0,505.0,0.00711,0.232,1873.3,3220.8,0.3179,122.2,1.2,-1.954,30.245,4.612,19.291,29.99,6.769,-18.257,18.137,13.184,-19.626,11.787,1.436,8.034,0.712,1.8,0.187,1.31,2.913,0.303,-2.647,2.919,1.657,-0.701,1.921,-0.596,0.537,3,0,0.5326,0.4094,0.5978,0.407,0.0364,-0.2412,0.0506,-0.2176,2.42,-23.62,9.4,317.6,194.6,0,0.8766,0.3127,1,106.4,121.2,0.095,0.357,0.364,0.677,0.69,0.429,0.381,0.236,0.014,0.614,0.249,0.202,0.411,0.1,0.08,0.036,0.192,0.162,0.216,0.179,0.269,0.179,1,0.764,1,1,0.8935,0,156.0,5.82,7.67,1,3.287,0.4867,0.3314,0.977,0.4631,0.3062,0.916,0.5272,0.351,0.949,0.5101,0.3386,0.742,0.519,0.3293,0.85,0.5785,0.2318,0.684,0.4432,0.3076,0.88,0.4694,0.3351,0.8,0.4409,0.2802,1.066,0.5054,0.2511,0.867,0.4302,0.3545,0.886,5,1,0.06454308093994778,1.0
44,26,1,minor_infractions,6,24.3,4,50.3,0,0,1,1,3,0,0,2,7,1870.0,520.0,0.0475,0.149,2508.1,3197.0,0.1329,132.2,4.6,1.035,-14.502,8.512,0.261,-21.89,18.464,21.43,-6.817,14.859,9.819,-9.324,-5.802,-3.39,0.84,-2.356,-0.787,1.294,-2.252,2.857,1.698,-0.025,2.267,1.866,-1.744,0.479,0.551,1,1,0.3438,0.4535,0.4003,0.4489,-0.315,-0.054,-0.3119,-0.0153,-31.73,-4.55,13.6,261.9,303.0,1,0.6743,0.9839,0,106.7,136.3,0.389,0.401,0.296,0.24,0.31,0.752,0.831,0.137,0.144,0.558,0.263,0.651,0.527,0.29,0.32,0.496,0.346,0.639,0.573,0.309,0.011,0.418,5,0.883,1,1,0.9006,0,170.9,-14.91,-0.81,0,0.844,0.4517,0.3608,1.048,0.532,0.2602,0.779,0.5195,0.3171,0.901,0.4597,0.2125,0.81,0.4855,0.2771,0.926,0.5072,0.3244,0.857,0.3927,0.2977,0.783,0.4668,0.2579,0.921,0.4973,0.3431,0.829,0.4322,0.2421,0.594,0.492,0.2966,0.906,0,0,0.012994652406417112,1.0
45,17,0,honest,0,0.0,2,15.7,0,0,0,0,0,0,0,5,2,1587.0,508.0,0.01061,0.251,2085.9,2876.5,0.313,137.8,1.6,-5.236,-6.875,-31.539,7.092,-6.82,-13.53,6.45,-6.182,36.976,33.102,-11.383,14.235,-3.264,-0.008,-3.112,-4.202,0.45,1.122,-1.318,0.221,-3.31,4.189,2.672,-0.31,1.879,-0.02,3,0,0.5081,0.4439,0.5725,0.4426,0.03,-0.1273,-0.0007,-0.1263,1.65,-12.42,4.6,338.0,151.5,0,0.9302,0.3896,1,117.5,129.2,0.123,0.313,0.41,0.364,0.314,0.0,0.225,0.041,0.171,0.189,0.14,0.1,0.153,0.09,0.137,0.001,0.016,0.115,0.105,0.026,0.0,0.207,0,0.879,4,3,0.79585,0,136.1,-4.17,6.33,0,0.101,0.6287,0.3162,1.009,0.7157,0.4094,0.896,0.6997,0.3386,0.929,0.7217,0.3531,0.893,0.6979,0.3577,0.756,0.6156,0.3205,1.006,0.7079,0.3611,0.933,0.6543,0.2629,0.777,0.7082,0.34,0.877,0.7021,0.3577,0.772,0.6921,0.3304,0.848,2,0,0.0,0.75
46,77,3,severe_cheating,18,106.5,14,60.5,5,2,8,9,12,10,1,4,4,1769.0,462.0,0.00661,0.1989,1937.6,2890.3,0.3384,121.8,2.48,12.498,0.647,9.641,-16.508,15.668,0.879,22.541,5.584,8.535,3.331,-24.122,-7.333,-21.734,0.876,1.702,0.548,-2.029,3.015,-0.554,0.267,1.404,2.562,-0.139,-1.779,-1.433,-1.338,3,0,0.4577,0.568,0.5173,0.5702,-0.1229,0.223,-0.1264,0.2126,-12.78,20.96,12.7,191.5,500.2,1,0.8753,0.3501,1,107.1,150.9,0.282,0.386,0.425,0.408,0.307,0.879,0.564,0.269,0.0,0.524,0.311,0.55,0.383,0.215,0.437,0.594,0.315,0.454,0.732,0.291,0.031,0.073,5,0.81,2,0,0.8268,0,159.5,8.11,-8.94,1,1.94,0.3907,0.2477,1.069,0.4243,0.2472,0.839,0.3694,0.2654,0.844,0.3736,0.2258,0.946,0.3589,0.2187,0.903,0.3577,0.3267,0.871,0.4708,0.2137,0.843,0.4829,0.2681,0.877,0.4338,0.3107,0.81,0.5295,0.248,0.888,0.4735,0.2958,0.955,5,1,0.060203504804974564,0.0
47,36,1,minor_infractions,2,12.0,4,22.1,0,0,2,0,2,0,0,5,2,1878.0,509.0,0.02975,0.075,2472.1,3339.4,0.1083,123.0,4.0,-14.197,-18.482,-13.367,-4.99,22.169,14.112,-8.472,-21.189,-3.22,23.245,8.401,3.47,-4.63,-3.486,-3.483,-2.951,0.847,1.774,1.694,-1.467,-0.267,-1.841,2.013,0.959,0.8,-1.529,1,1,0.4816,0.5941,0.5393,0.5982,-0.0151,0.2622,-0.0139,0.2952,-1.63,28.03,14.5,215.9,369.9,1,0.9448,0.3944,1,106.6,143.0,0.07,0.359,0.35,0.156,0.255,0.698,0.496,0.294,0.202,0.44,0.18,0.107,0.214,0.0,0.0,0.297,0.077,0.323,0.622,0.646,0.356,0.13,2,0.807,2,0,0.8605499999999999,0,141.2,3.7,2.78,1,2.985,0.5604,0.2686,0.921,0.4847,0.2019,0.89,0.5748,0.2943,0.842,0.4881,0.2943,0.884,0.5056,0.1928,0.958,0.5095,0.3034,0.972,0.4551,0.2175,0.889,0.4675,0.2409,0.888,0.5135,0.2634,0.82,0.5109,0.2901,0.773,0.5838,0.3242,0.821,5,1,0.006389776357827476,0.0
48,63,2,moderate_cheating,7,25.0,5,68.7,1,2,4,1,2,4,0,0,0,1482.0,551.0,0.00774,0.1987,1717.3,2737.1,0.2506,92.9,1.67,16.931,-1.869,-18.816,-0.614,4.823,-0.081,0.621,14.522,7.19,13.163,0.276,-21.766,-13.434,0.667,0.575,-0.292,-0.288,-0.843,0.355,-0.902,1.209,0.667,1.682,-0.104,-1.98,-1.805,3,0,0.4871,0.4984,0.5509,0.5036,-0.0371,0.0694,0.0091,0.0322,-1.59,0.92,7.8,295.2,214.8,0,0.8458,0.4252,1,122.0,146.1,0.064,0.323,0.245,0.095,0.175,0.909,0.638,0.193,0.234,0.537,0.061,0.0,0.394,0.234,0.249,0.142,0.117,0.125,0.422,0.647,0.33,0.29,2,0.584,2,1,0.9079999999999999,0,181.0,3.59,17.28,0,0.864,0.5237,0.3868,0.712,0.4718,0.3923,0.847,0.574,0.3969,0.66,0.372,0.4255,1.004,0.4774,0.4087,0.988,0.5196,0.4156,0.786,0.5461,0.3964,0.778,0.49,0.4515,0.993,0.4669,0.434,0.92,0.511,0.3889,0.943,0.5356,0.4623,0.813,3,0,0.016869095816464237,0.5
49,100,3,severe_cheating,20,98.1,20,188.9,5,3,10,7,14,3,0,5,0,1701.0,478.0,0.01094,0.1357,3129.1,4504.7,0.2691,145.3,0.09,4.577,-2.282,29.935,-14.803,-15.046,-18.743,18.789,-2.668,5.489,20.42,8.364,6.365,-0.452,0.557,-2.492,1.367,-1.611,-1.701,-2.904,1.403,0.423,-0.18,1.809,0.644,0.803,0.218,2,1,0.541,0.4277,0.5982,0.4261,0.0932,-0.1488,0.0939,-0.1555,9.61,-15.77,7.8,348.1,232.8,0,0.9133,0.3,1,115.4,137.8,0.007,0.37,0.449,0.419,0.49,0.176,0.0,0.174,0.361,0.125,0.104,0.044,0.094,0.161,0.232,0.138,0.061,0.005,0.0,0.0,0.18,0.069,3,0.938,1,1,0.8081,0,160.3,-4.83,-1.0,0,-0.063,0.5398,0.2421,0.897,0.5655,0.3307,0.783,0.4854,0.2801,0.848,0.5049,0.2754,0.838,0.5656,0.2341,0.84,0.4557,0.267,0.898,0.5619,0.3201,0.802,0.5583,0.2384,0.826,0.5326,0.2617,0.81,0.5015,0.2937,0.97,0.4406,0.2408,0.785,0,0,0.057671957671957666,1.0
50,48,2,moderate_cheating,8,52.2,5,67.1,2,1,2,3,2,3,0,0,5,1808.0,511.0,0.01273,0.1928,3105.7,4661.2,0.3408,110.0,1.49,-6.823,-16.357,0.476,-9.091,-6.304,1.695,-5.981,8.532,-4.994,4.961,-13.671,-18.962,-3.227,-2.143,-2.15,1.727,-1.695,0.29,-0.049,0.124,2.679,-1.393,0.221,-2.567,-2.216,-1.215,2,1,0.3785,0.5053,0.4351,0.503,-0.2818,0.0451,-0.2918,-0.007,-28.54,1.4,12.4,95.2,426.4,1,0.9316,0.2663,1,122.5,137.9,0.07,0.378,0.384,0.61,0.664,0.492,0.236,0.0,0.0,0.618,0.025,0.12,0.495,0.24,0.178,0.104,0.291,0.0,0.0,0.161,0.457,0.222,1,0.866,1,0,0.8604,0,145.1,3.52,-1.47,0,-0.243,0.5185,0.3544,0.809,0.5327,0.3102,0.783,0.4928,0.286,0.756,0.4835,0.2189,0.879,0.5192,0.2405,0.865,0.5059,0.3133,0.875,0.4906,0.3214,0.772,0.4925,0.3022,0.85,0.5065,0.2798,0.834,0.4723,0.323,0.706,0.5495,0.2927,0.979,0,0,0.028871681415929204,0.0
51,51,2,moderate_cheating,13,67.7,8,108.0,1,2,3,4,3,3,1,3,0,1877.0,439.0,0.00893,0.2323,2007.0,2736.7,0.2903,112.4,2.29,-1.486,12.604,5.762,23.484,-10.891,1.772,25.203,9.196,-21.652,12.632,8.222,-7.174,14.864,-0.427,1.013,1.459,2.082,-2.422,-0.916,2.584,1.409,-2.513,-0.424,-0.088,-1.695,0.533,3,0,0.4308,0.5834,0.4932,0.5858,-0.0963,0.2176,-0.1034,0.2204,-10.89,21.32,11.1,250.7,238.9,1,0.5264,0.5812,0,110.8,125.6,0.089,0.394,0.412,0.275,0.297,0.658,0.594,0.207,0.178,0.551,0.0,0.23,0.114,0.073,0.176,0.044,0.226,0.359,0.572,0.708,0.307,0.096,2,0.741,1,0,0.998,0,133.6,3.99,-5.54,0,0.327,0.5944,0.2734,0.873,0.5059,0.2432,0.899,0.5869,0.2362,0.751,0.5148,0.2849,0.895,0.5673,0.3382,0.92,0.5439,0.331,0.901,0.601,0.3683,0.921,0.5367,0.2769,0.733,0.5693,0.3324,0.868,0.5879,0.294,0.856,0.4779,0.3137,0.701,0,0,0.03606819392647843,0.0
52,4,0,honest,2,10.3,2,36.0,0,0,0,0,1,0,0,1,7,1812.0,493.0,0.01068,0.2089,3128.0,4699.0,0.2981,121.0,0.98,-17.712,-7.285,3.717,-24.047,-15.146,-3.972,0.55,15.088,-21.013,-3.954,-7.694,-2.699,5.972,-3.529,-1.183,0.411,-2.572,-1.181,0.19,-0.317,2.672,-2.338,-0.418,-0.895,0.721,0.446,2,1,0.5304,0.4077,0.5846,0.4077,0.0918,-0.1327,0.0707,-0.1281,8.68,-13.54,12.0,371.9,347.8,0,0.8929,0.3138,1,120.5,131.2,0.362,0.439,0.415,0.561,0.705,0.111,0.724,0.675,0.105,0.21,0.197,0.121,0.151,0.018,0.05,0.004,0.192,0.252,0.133,0.661,0.453,0.404,4,0.828,1,1,1.0,1,167.9,-14.5,21.98,0,1.248,0.3156,0.3794,1.002,0.3652,0.3491,0.817,0.3216,0.3876,0.949,0.2756,0.4636,0.936,0.3571,0.37,0.996,0.2834,0.4029,0.891,0.3367,0.4334,1.024,0.3362,0.358,0.949,0.327,0.4727,0.703,0.2856,0.3587,0.879,0.3653,0.3657,0.833,1,0,0.005684326710816778,1.0
53,16,0,honest,3,11.4,1,19.3,0,0,0,0,1,0,0,1,0,1530.0,497.0,0.01261,0.2443,3051.7,4833.7,0.3609,138.2,0.69,25.586,10.296,-21.648,-0.268,-22.898,5.269,-10.648,13.377,4.596,-2.103,-13.811,12.995,-4.452,3.052,-0.763,-2.497,0.521,-1.967,0.758,-1.466,-0.381,1.191,1.036,0.237,0.141,-0.215,2,1,0.479,0.5684,0.5298,0.5609,-0.0517,0.2005,-0.0145,0.1744,-3.61,18.95,12.9,403.5,198.4,0,0.8844,0.2806,1,123.7,110.6,0.29,0.357,0.237,0.583,0.796,0.119,0.674,0.735,0.007,0.14,0.138,0.034,0.037,0.165,0.063,0.024,0.301,0.063,0.118,0.586,0.496,0.295,4,0.651,3,2,0.8564333333333334,0,157.9,1.76,19.74,0,0.455,0.5432,0.3743,1.025,0.5681,0.4621,0.953,0.545,0.4581,0.894,0.6534,0.4913,0.905,0.5635,0.3869,0.806,0.5342,0.4945,0.813,0.5268,0.4123,0.843,0.5608,0.433,0.658,0.4976,0.4379,1.058,0.582,0.3758,1.035,0.4914,0.4006,0.721,3,0,0.007450980392156863,0.6666666666666666
54,28,1,minor_infractions,6,18.7,5,75.4,1,0,3,1,3,2,0,1,0,1703.0,454.0,0.04758,0.0997,2119.8,3048.3,0.1368,120.3,3.02,8.654,25.854,13.738,35.237,-7.141,-6.126,19.27,9.163,21.414,25.517,-14.157,-21.26,9.942,0.178,1.746,-1.246,2.588,0.34,0.351,3.124,1.259,1.779,3.837,-1.466,-2.913,1.065,1,1,0.5314,0.4369,0.5937,0.4387,0.0686,-0.2007,0.0779,-0.2303,8.84,-21.31,12.1,336.4,251.9,0,0.9699,0.3443,1,123.6,141.5,0.321,0.353,0.426,0.655,0.52,0.185,1.0,0.701,0.047,0.0,0.32,0.185,0.084,0.118,0.0,0.042,0.115,0.156,0.1,0.863,0.543,0.364,4,0.729,2,1,0.7722,0,178.3,15.99,-3.14,0,1.59,0.4283,0.2496,0.88,0.4762,0.33,0.908,0.5003,0.2555,0.73,0.4608,0.2515,0.844,0.4112,0.2322,0.907,0.523,0.215,0.822,0.4209,0.1985,0.999,0.4298,0.2048,0.948,0.5199,0.2498,0.991,0.489,0.2572,0.84,0.5032,0.2719,0.89,0,0,0.01098062243100411,0.5
55,10,0,honest,2,11.8,2,29.9,0,0,0,0,0,0,0,1,7,2060.0,442.0,0.01432,0.1804,3102.7,4876.0,0.269,124.3,0.57,20.702,10.294,29.081,-31.301,-17.648,16.545,18.003,-0.185,-14.247,30.803,-7.431,-15.748,-1.927,2.858,1.646,3.314,-4.413,-1.517,1.513,4.171,0.168,-1.565,2.771,-2.196,-1.792,2.081,2,1,0.5067,0.4546,0.5653,0.4512,-0.0009,0.029,0.0267,0.0183,2.0,4.0,15.8,290.4,104.2,0,0.8905,0.4133,1,109.9,131.5,0.057,0.411,0.361,0.296,0.347,0.213,0.005,0.069,0.326,0.21,0.02,0.178,0.11,0.323,0.033,0.157,0.193,0.06,0.062,0.172,0.008,0.0,3,0.779,2,2,0.82715,0,135.0,1.26,4.38,0,2.395,0.4896,0.3486,0.864,0.5032,0.3506,0.881,0.5606,0.3557,0.93,0.5312,0.2872,0.915,0.5392,0.3341,0.756,0.517,0.2687,0.983,0.5401,0.3171,0.821,0.5231,0.3078,0.991,0.5547,0.3545,0.902,0.5507,0.281,0.806,0.471,0.2935,0.891,4,1,0.005728155339805825,1.0
56,13,0,honest,2,9.1,2,42.1,0,0,0,0,1,0,0,0,2,1836.0,595.0,0.00935,0.211,1673.8,2928.3,0.3452,115.0,1.68,1.406,-1.255,-24.926,7.264,15.696,-3.206,-3.56,20.355,-9.747,18.627,-22.145,-1.166,-3.384,1.425,-0.45,-2.855,-0.542,1.846,1.582,-1.741,2.398,-2.493,1.349,-1.619,-1.274,0.257,3,0,0.3382,0.5474,0.397,0.5476,-0.3291,-0.0051,-0.3088,0.0044,-30.45,2.11,18.1,204.4,424.3,1,0.9423,0.4317,1,117.6,152.1,0.087,0.389,0.415,0.656,0.503,0.438,0.367,0.161,0.0,0.602,0.0,0.067,0.357,0.126,0.164,0.016,0.136,0.04,0.013,0.078,0.397,0.212,1,0.952,2,1,0.8367,0,166.0,5.31,13.03,0,0.19,0.6599,0.266,0.772,0.6414,0.3063,0.851,0.6687,0.3557,0.768,0.5975,0.2995,0.871,0.6204,0.2931,0.834,0.7082,0.2823,0.882,0.7325,0.2996,0.857,0.6916,0.2828,0.825,0.6665,0.2699,0.941,0.6625,0.2558,0.905,0.6251,0.2732,1.037,2,0,0.004956427015250544,0.5
57,2,0,honest,1,3.5,0,0.0,0,0,1,0,0,0,0,4,0,2135.0,544.0,0.00243,0.0388,547.7,937.8,0.1027,139.4,0.79,16.279,3.516,8.319,0.666,20.378,-24.003,-18.586,-28.546,14.746,33.928,-14.892,-4.145,13.806,1.663,0.807,-0.388,-1.763,2.033,-2.56,-2.915,-3.234,1.4,4.014,-0.967,0.94,1.169,0,0,0.5518,0.5048,0.6067,0.5036,0.0714,-0.025,0.1323,-0.0046,9.47,-1.94,11.7,303.3,175.1,0,0.9165,0.1916,1,129.9,132.3,0.115,0.273,0.424,0.078,0.348,0.176,0.043,0.015,0.121,0.045,0.182,0.186,0.094,0.086,0.015,0.0,0.07,0.116,0.0,0.175,0.235,0.221,0,0.861,1,0,0.8567,0,149.6,5.31,5.55,0,0.634,0.6934,0.3723,0.851,0.6615,0.4491,0.8,0.6543,0.3842,0.818,0.6004,0.3941,0.945,0.6819,0.3994,0.752,0.6091,0.3688,0.736,0.6008,0.368,0.985,0.6228,0.4367,0.892,0.6151,0.4401,0.781,0.5882,0.3691,0.842,0.6101,0.3322,0.958,2,0,0.001639344262295082,0.0
58,47,2,moderate_cheating,14,78.1,5,35.7,1,1,3,4,5,1,0,3,6,1921.0,610.0,0.00905,0.2548,1623.1,2118.2,0.2806,109.0,1.98,-8.903,4.017,-7.841,-7.372,2.56,-7.502,2.376,8.317,-3.534,27.933,-3.77,-9.173,-13.494,-1.559,0.087,-0.728,-1.755,0.167,-2.546,0.295,-0.661,1.3,2.201,-1.13,-2.416,-2.77,3,0,0.4257,0.5542,0.487,0.5492,-0.1425,0.1841,-0.1573,0.1789,-16.43,19.36,10.8,413.4,292.8,0,0.468,1.3907,0,110.2,139.8,0.145,0.324,0.439,0.239,0.283,0.104,0.081,0.074,0.249,0.0,0.299,0.044,0.064,0.162,0.0,0.07,0.109,0.09,0.15,0.005,0.106,0.217,3,0.808,1,1,0.9417,0,131.0,9.47,-6.43,0,2.353,0.4487,0.336,0.903,0.526,0.2577,0.903,0.5273,0.2667,0.839,0.5209,0.3,0.992,0.4859,0.2847,0.824,0.4961,0.3561,0.815,0.4892,0.3251,0.833,0.4918,0.2835,0.842,0.5532,0.4074,0.867,0.5078,0.3305,0.828,0.4949,0.2501,0.808,6,1,0.040655908381051535,1.0
59,70,3,severe_cheating,16,38.7,20,464.0,4,1,5,6,6,9,1,1,2,2088.0,504.0,0.01056,0.2019,2712.0,4723.3,0.2866,130.2,1.82,-13.383,1.748,-18.32,-2.667,9.962,-0.714,11.947,-1.949,18.996,7.788,-0.348,0.397,-16.558,-1.637,-0.256,-2.069,-0.49,0.676,-1.309,0.511,0.105,1.671,1.873,1.557,-0.513,-1.004,2,1,0.3573,0.468,0.4247,0.4597,-0.2682,-0.0051,-0.3417,-0.0421,-30.06,-4.35,17.9,231.8,335.3,1,0.9894,0.355,1,139.1,124.1,0.128,0.291,0.393,0.322,0.433,0.715,0.592,0.126,0.224,0.605,0.001,0.08,0.356,0.21,0.239,0.14,0.0,0.409,0.438,0.691,0.034,0.0,2,0.853,2,2,0.7482500000000001,0,183.9,-17.31,-1.5,0,1.684,0.554,0.3447,1.004,0.581,0.3768,0.792,0.432,0.3558,0.981,0.5501,0.3527,0.789,0.6377,0.4189,0.915,0.6177,0.2973,0.9,0.463,0.3376,1.004,0.5032,0.3251,0.927,0.5889,0.3621,0.82,0.5838,0.3252,0.921,0.5812,0.3238,0.812,4,1,0.018534482758620692,1.0
60,4,0,honest,1,5.0,0,0.0,0,0,0,0,1,0,0,4,1,2024.0,530.0,0.01317,0.1933,3129.5,4494.6,0.3295,104.8,1.75,6.467,3.135,12.255,20.27,2.707,-35.099,-7.25,8.565,36.271,-2.956,-16.219,-25.277,4.74,0.115,-0.665,1.41,1.931,1.701,-3.857,-0.843,0.956,2.611,0.339,-3.6,-2.427,0.72,2,1,0.6555,0.4599,0.7108,0.452,0.3191,-0.0653,0.3188,-0.057,29.58,-6.25,9.9,145.8,460.6,1,0.9884,0.3289,1,127.3,135.3,0.357,0.373,0.32,0.329,0.208,0.666,0.543,0.0,0.289,0.902,0.409,0.6,0.395,0.543,0.434,0.494,0.445,0.741,0.572,0.255,0.12,0.428,5,0.653,2,1,0.75215,0,160.3,-2.39,1.85,0,2.126,0.4658,0.3475,0.861,0.4761,0.3498,0.72,0.4801,0.3883,0.963,0.502,0.3627,0.794,0.4505,0.3746,0.921,0.5091,0.4066,0.814,0.532,0.3161,0.872,0.5546,0.3161,0.822,0.492,0.2944,0.857,0.5343,0.3158,0.821,0.4639,0.4041,0.95,6,1,0.0024703557312252965,0.5
61,10,0,honest,0,0.0,0,0.0,0,0,0,0,0,0,0,4,3,1773.0,488.0,0.0019,0.0512,440.5,377.3,0.1745,119.8,0.74,-7.521,8.168,5.578,-7.819,-13.257,-1.728,-22.018,6.651,0.318,-15.091,-1.494,-26.467,-4.927,0.222,-0.253,-1.412,-0.406,-1.903,-0.669,-1.643,1.532,-0.208,-2.05,-1.199,-2.628,-0.601,0,0,0.4661,0.5963,0.5341,0.5982,-0.0627,0.212,-0.0766,0.1945,-6.13,20.89,9.9,389.1,234.5,0,0.9228,0.3429,1,125.8,144.9,0.091,0.316,0.288,0.196,0.214,0.229,0.076,0.251,0.346,0.209,0.197,0.129,0.134,0.174,0.168,0.102,0.129,0.0,0.083,0.21,0.136,0.0,3,0.75,2,0,0.98815,0,133.1,4.14,0.28,0,1.236,0.5503,0.2521,0.939,0.5198,0.2402,0.966,0.5426,0.3421,0.877,0.5671,0.2615,0.903,0.5781,0.3094,0.863,0.5324,0.248,0.912,0.5964,0.2829,0.88,0.5635,0.3217,0.958,0.5206,0.332,0.865,0.6486,0.2785,0.963,0.5356,0.3032,0.96,0,0,0.0,0.0
62,15,0,honest,0,0.0,0,0.0,0,0,0,0,0,0,0,2,2,1712.0,449.0,0.04245,0.1367,2310.3,3272.0,0.0624,133.9,3.16,-6.108,-2.344,16.045,-8.218,3.172,8.318,-1.658,-1.024,15.372,11.88,17.299,0.902,-10.585,-2.424,-2.199,0.012,-1.427,0.537,0.418,0.489,0.807,2.741,-0.024,1.84,0.548,-0.13,1,1,0.513,0.5824,0.5736,0.5723,0.057,0.1563,0.019,0.1216,4.96,15.46,20.0,198.7,366.7,1,0.2373,1.2474,0,117.2,129.8,0.083,0.388,0.49,0.243,0.361,0.141,0.033,0.0,0.448,0.191,0.107,0.038,0.189,0.0,0.139,0.138,0.25,0.064,0.032,0.292,0.139,0.238,3,0.76,3,2,0.8802333333333333,0,154.3,-1.51,-4.39,0,0.608,0.5585,0.2872,0.859,0.4767,0.3445,0.884,0.514,0.3153,0.906,0.4957,0.3851,0.827,0.4562,0.2322,0.88,0.5373,0.2994,1.016,0.5106,0.353,0.834,0.4878,0.275,0.996,0.4939,0.342,0.801,0.472,0.402,0.893,0.4799,0.2905,0.945,0,0,0.0,0.6666666666666666
63,17,0,honest,2,9.9,2,5.2,0,0,0,0,1,0,0,5,3,1859.0,417.0,0.05808,0.1413,1896.5,3364.4,0.0832,113.3,3.85,-13.624,-22.089,-3.833,21.06,-10.85,-26.287,8.867,-14.678,35.943,-10.805,-15.894,1.203,-17.342,-0.983,-3.692,0.523,3.571,1.741,-0.399,1.048,-0.719,4.187,-0.7,-3.09,0.024,-0.6,1,1,0.4989,0.5743,0.5625,0.5786,0.0179,0.2098,0.0212,0.1785,1.47,19.21,15.9,135.6,463.5,1,0.9456,0.3404,1,121.2,145.6,0.076,0.447,0.365,0.013,0.425,0.237,0.174,0.21,0.008,0.009,0.0,0.186,0.101,0.018,0.089,0.0,0.012,0.188,0.0,0.269,0.172,0.17,0,0.803,1,0,0.955,0,167.5,3.26,0.96,1,2.603,0.4349,0.2343,0.719,0.4162,0.2514,1.02,0.461,0.2589,0.872,0.5181,0.3209,0.979,0.4633,0.3061,0.836,0.434,0.3066,0.873,0.4578,0.2241,0.954,0.3964,0.2625,0.943,0.5013,0.2918,0.931,0.5015,0.2635,0.934,0.4084,0.2128,0.972,5,1,0.0053254437869822485,0.0
64,16,1,minor_infractions,3,13.9,4,24.1,0,0,2,0,3,2,0,2,8,2027.0,483.0,0.01025,0.235,3036.1,4797.0,0.3153,96.8,1.22,13.694,-16.319,23.421,3.865,9.542,-9.061,1.956,32.468,4.427,18.798,5.407,-7.567,-33.239,2.489,-0.592,1.074,0.078,2.587,-1.635,-0.671,3.021,0.102,2.451,-1.68,-0.322,-3.644,2,1,0.3763,0.4848,0.4369,0.4958,-0.2705,0.0316,-0.2847,0.0296,-28.44,1.42,20.4,205.3,497.9,1,0.9723,0.3542,1,127.1,144.3,0.137,0.306,0.341,0.24,0.314,0.701,0.496,0.029,0.049,0.469,0.136,0.29,0.132,0.106,0.113,0.003,0.078,0.474,0.41,0.418,0.242,0.0,2,0.902,2,2,0.9435,1,164.3,-2.55,4.46,0,0.79,0.4555,0.4668,0.946,0.4681,0.4297,0.821,0.4893,0.4328,0.904,0.5144,0.4771,0.944,0.5437,0.4984,0.88,0.5152,0.4442,0.73,0.4188,0.3752,0.81,0.4528,0.3806,0.878,0.493,0.4501,0.805,0.414,0.5072,0.888,0.4215,0.4408,0.885,3,0,0.006857424765663542,1.0
65,83,3,severe_cheating,23,70.8,18,90.9,5,4,11,4,11,4,0,2,1,2078.0,508.0,0.00275,0.023,373.6,387.8,0.0741,121.2,1.48,-19.451,14.813,-3.752,3.076,2.002,1.169,-21.397,0.261,7.148,38.495,0.678,-4.544,6.954,-3.17,2.652,-2.339,0.039,1.334,-0.555,-3.377,0.726,0.2,6.362,2.348,1.229,0.941,0,0,0.341,0.5468,0.4007,0.5542,-0.3772,0.0699,-0.3655,0.1254,-37.0,8.62,15.0,238.4,448.7,1,0.9406,0.3691,1,133.4,142.3,0.312,0.302,0.317,0.295,0.395,0.746,0.609,0.251,0.109,0.723,0.322,0.735,0.459,0.299,0.307,0.456,0.436,0.62,0.77,0.421,0.001,0.174,5,0.763,2,2,0.8507,0,150.9,-4.32,-5.89,0,3.251,0.551,0.3468,0.927,0.522,0.2866,0.737,0.4905,0.2936,0.798,0.4881,0.3276,0.759,0.4965,0.3485,0.984,0.5045,0.4473,0.825,0.4985,0.2758,0.904,0.553,0.289,1.02,0.5679,0.4199,0.82,0.4607,0.2772,0.967,0.5639,0.4278,0.875,6,1,0.034071222329162654,1.0
66,99,3,severe_cheating,18,89.4,9,107.8,4,1,5,5,10,7,0,0,8,1925.0,419.0,0.01501,0.2252,3230.4,4215.0,0.2498,118.7,1.86,9.505,7.952,4.44,5.816,0.833,-29.121,-11.853,-12.36,10.709,9.62,-17.056,-9.772,-5.799,-0.006,-0.72,0.091,0.561,0.063,-1.985,-0.95,-1.971,1.205,1.368,-1.598,-1.638,-0.621,2,1,0.5243,0.5332,0.5822,0.5299,0.0484,-0.0691,0.0761,-0.0632,7.63,-5.68,12.2,163.7,454.1,1,0.8699,0.3699,1,114.5,146.2,0.286,0.225,0.38,0.326,0.301,0.844,0.656,0.408,0.013,0.663,0.375,0.654,0.458,0.227,0.418,0.259,0.117,0.678,0.443,0.251,0.1,0.329,5,0.731,1,1,0.9351,0,149.3,4.56,20.74,0,1.095,0.5167,0.5161,0.945,0.4645,0.4887,0.822,0.5252,0.437,0.92,0.5689,0.4377,0.87,0.5883,0.4246,0.973,0.4699,0.4526,0.77,0.5041,0.4175,0.819,0.4374,0.4646,0.817,0.5916,0.442,0.886,0.472,0.4626,0.904,0.4374,0.4774,0.787,3,0,0.04644155844155844,1.0
67,31,1,minor_infractions,4,16.5,5,30.3,1,0,2,0,2,2,0,0,8,1992.0,477.0,0.00124,0.0711,565.7,811.9,0.0826,97.2,1.39,34.179,-6.189,30.942,13.768,14.299,29.308,-4.094,15.228,24.205,1.901,-1.693,12.169,3.481,3.34,-0.276,3.501,1.237,1.64,3.404,0.998,1.861,1.567,-0.121,-3.107,-0.307,-0.462,0,0,0.3218,0.4716,0.3766,0.4681,-0.3659,-0.0498,-0.3693,-0.0591,-33.72,-2.92,10.3,173.9,345.3,1,0.9152,0.2628,1,109.6,154.4,0.028,0.345,0.327,0.322,0.347,0.02,0.125,0.071,0.233,0.139,0.089,0.05,0.124,0.0,0.079,0.095,0.0,0.119,0.073,0.197,0.175,0.0,3,0.882,2,1,0.8160000000000001,0,143.6,-5.85,-2.14,1,3.179,0.4907,0.3398,0.948,0.4572,0.3303,0.816,0.4393,0.2978,0.896,0.4415,0.2489,0.861,0.4737,0.3223,0.82,0.5029,0.3151,0.926,0.4928,0.2956,1.006,0.4626,0.2816,0.961,0.4266,0.3191,0.745,0.4893,0.3174,0.965,0.4672,0.2641,0.872,5,1,0.008283132530120483,0.5
68,15,0,honest,0,0.0,1,6.4,0,0,0,0,1,0,0,3,5,1697.0,500.0,0.00109,0.053,605.7,922.9,0.0641,123.9,3.48,12.003,-17.978,-0.599,2.255,19.704,-18.86,-6.945,9.556,-1.221,-10.872,-9.671,-4.584,29.051,0.945,-2.494,0.139,2.899,0.582,-2.344,-1.396,0.797,0.762,-0.372,-2.481,0.67,3.85,0,0,0.5687,0.4677,0.6263,0.4723,0.0852,-0.1546,0.0882,-0.2015,7.46,-18.81,9.6,349.6,290.7,0,0.9254,0.3973,1,126.0,135.2,0.238,0.28,0.303,0.649,0.666,0.101,0.751,0.75,0.19,0.0,0.287,0.119,0.034,0.217,0.182,0.291,0.196,0.025,0.104,0.795,0.683,0.135,4,0.837,2,1,0.83925,0,157.0,-5.16,12.86,0,0.518,0.5542,0.4886,0.961,0.445,0.5273,0.858,0.533,0.4722,0.806,0.4882,0.4466,0.844,0.4605,0.4215,0.829,0.4958,0.4301,0.907,0.4234,0.4882,0.912,0.5088,0.4644,0.87,0.5179,0.4541,0.975,0.4548,0.4518,0.979,0.491,0.494,0.811,3,0,0.0,0.5
